facility_id,facility_name,facility_type,district,latitude,longitude,gwl_value,rainfall_value,river_level_value,temperature_value,humidity_value,wind_speed_value,dist_to_river_km,rolling_rain_3d,river_anomaly,heat_stress,moisture_risk,storm_risk,storage_flag,crs,risk_level,last_updated,load_stress,water_availability,flood_safety,rainfall_stability,electricity_reliability
node/4445104811,Ramkrishna Care Hospital,Hospital,RAIPUR,21.2130814,81.6537238,-6.336,0.5,277.637,20.5,76.37,40.0,14.98746581713008,1.0,-2.375158372318481,0,0,0,1,0.4781826078822488,Medium,2026-03-14 02:31:42,28.9609738463444,-6.336,-277.637,-2.375158372318481,1.0
node/4445112827,Narayana Hrudayalaya Mmi Hospital (Managed By Narayana Hrudayalaya Pvt Ltd - Bangalore) - Raipur,Hospital,RAIPUR,21.2132613,81.657736,-6.336,0.5,277.637,20.5,76.37,40.0,15.229283201643016,1.0,-2.375158372318481,0,0,0,1,0.4781826078822488,Medium,2026-03-14 02:31:42,28.9609738463444,-6.336,-277.637,-2.375158372318481,1.0
node/4445113471,Suyash Superspeciality Hospital,Hospital,RAIPUR,21.2584938,81.6060273,-6.336,0.5,277.637,20.5,76.37,40.0,18.00161123907191,1.0,-2.375158372318481,0,0,0,1,0.4781826078822488,Medium,2026-03-14 02:31:42,28.9609738463444,-6.336,-277.637,-2.375158372318481,1.0
node/4445129008,Vardaan Hospital (Unit Of Jindal Medicare),Hospital,RAIPUR,21.2520112,81.6632415,-6.336,0.5,277.637,20.5,76.37,40.0,19.23443524663062,1.0,-2.375158372318481,0,0,0,1,0.4781826078822488,Medium,2026-03-14 02:31:42,28.9609738463444,-6.336,-277.637,-2.375158372318481,1.0
node/4445137285,Bal Gopal Children Hospital and Research Institute,Hospital,RAIPUR,21.2349337,81.6413322,-6.336,0.5,277.637,20.5,76.37,40.0,16.535336552496307,1.0,-2.375158372318481,0,0,0,1,0.4781826078822488,Medium,2026-03-14 02:31:42,28.9609738463444,-6.336,-277.637,-2.375158372318481,1.0
node/5556568170,Navkar Hospital and Maternity Home,Hospital,RAIPUR,21.2284143,81.6545326,-6.336,0.5,277.637,20.5,76.37,40.0,16.49740229313503,1.0,-2.375158372318481,0,0,0,1,0.4781826078822488,Medium,2026-03-14 02:31:42,28.9609738463444,-6.336,-277.637,-2.375158372318481,1.0
node/6950645744,Karma Hospital,Hospital,RAIPUR,21.2401756,81.6622585,-6.336,0.5,277.637,20.5,76.37,40.0,18.029770234477922,1.0,-2.375158372318481,0,0,0,1,0.4781826078822488,Medium,2026-03-14 02:31:42,28.9609738463444,-6.336,-277.637,-2.375158372318481,1.0
node/6950645749,Chhattisgarh Eye Hospital,Hospital,RAIPUR,21.2392112,81.6621937,-6.336,0.5,277.637,20.5,76.37,40.0,17.933107489926922,1.0,-2.375158372318481,0,0,0,1,0.4781826078822488,Medium,2026-03-14 02:31:42,28.9609738463444,-6.336,-277.637,-2.375158372318481,1.0
node/6950645773,Devi Laxmi Hospital,Hospital,RAIPUR,21.2233136,81.6522994,-6.336,0.5,277.637,20.5,76.37,40.0,15.889556379712754,1.0,-2.375158372318481,0,0,0,1,0.4781826078822488,Medium,2026-03-14 02:31:42,28.9609738463444,-6.336,-277.637,-2.375158372318481,1.0
node/6950646487,Sanjeevani Cbcc Usa Cancer Hospital,Hospital,RAIPUR,21.2142649,81.6503232,-6.336,0.5,277.637,20.5,76.37,40.0,14.916158880831407,1.0,-2.375158372318481,0,0,0,1,0.4781826078822488,Medium,2026-03-14 02:31:42,28.9609738463444,-6.336,-277.637,-2.375158372318481,1.0
node/6953541281,Aashirwad Fertility and Endoscopy Center,Hospital,RAIPUR,21.2346486,81.6077931,-6.336,0.5,277.637,20.5,76.37,40.0,15.430980306144285,1.0,-2.375158372318481,0,0,0,1,0.4781826078822488,Medium,2026-03-14 02:31:42,28.9609738463444,-6.336,-277.637,-2.375158372318481,1.0
node/6956627645,"Samarpan Hospital, Raipur",Hospital,RAIPUR,21.2650092,81.6679336,-6.336,0.5,277.637,20.5,76.37,40.0,20.74137646575804,1.0,-2.375158372318481,0,0,0,1,0.4781826078822488,Medium,2026-03-14 02:31:42,28.9609738463444,-6.336,-277.637,-2.375158372318481,1.0
node/6956627650,Sai Sushrusha Hospital,Hospital,RAIPUR,21.2352073,81.6418236,-6.336,0.5,277.637,20.5,76.37,40.0,16.58377644291135,1.0,-2.375158372318481,0,0,0,1,0.4781826078822488,Medium,2026-03-14 02:31:42,28.9609738463444,-6.336,-277.637,-2.375158372318481,1.0
node/6956627655,Sai Kalayan Hospital And Icu,Hospital,RAIPUR,21.2499934,81.6684566,-6.336,0.5,277.637,20.5,76.37,40.0,19.29621606366154,1.0,-2.375158372318481,0,0,0,1,0.4781826078822488,Medium,2026-03-14 02:31:42,28.9609738463444,-6.336,-277.637,-2.375158372318481,1.0
node/6956627660,Sai Baba Eye Hospital,Hospital,RAIPUR,21.2595225,81.6370104,-6.336,0.5,277.637,20.5,76.37,40.0,18.916260432683178,1.0,-2.375158372318481,0,0,0,1,0.4781826078822488,Medium,2026-03-14 02:31:42,28.9609738463444,-6.336,-277.637,-2.375158372318481,1.0
node/6956627669,Raipur Institute Of Medical Sciences Hospital,Hospital,RAIPUR,21.2419875,81.8368053,-6.938,1.0,286.786,20.5,76.37,40.0,18.168713683917183,1.0,-2.375158372318481,0,0,0,1,0.375,High,2026-03-14 02:31:42,20.5,-6.938,-286.786,-2.375158372318481,1.0
node/6956629791,Prannath Mission Hospital,Hospital,RAIPUR,21.2647055,81.6395652,-6.336,0.5,277.637,20.5,76.37,40.0,19.547719801598365,1.0,-2.375158372318481,0,0,0,1,0.4781826078822488,Medium,2026-03-14 02:31:42,28.9609738463444,-6.336,-277.637,-2.375158372318481,1.0
node/6956629796,Piles Care Hospital,Hospital,RAIPUR,21.2454024,81.6468099,-6.336,0.5,277.637,20.5,76.37,40.0,17.82960055311239,1.0,-2.375158372318481,0,0,0,1,0.4781826078822488,Medium,2026-03-14 02:31:42,28.9609738463444,-6.336,-277.637,-2.375158372318481,1.0
node/6956629801,Tharani Children Hospital And Dental Clinic,Hospital,RAIPUR,21.2248204,81.6595718,-6.336,0.5,277.637,20.5,76.37,40.0,16.416327887149514,1.0,-2.375158372318481,0,0,0,1,0.4781826078822488,Medium,2026-03-14 02:31:42,28.9609738463444,-6.336,-277.637,-2.375158372318481,1.0
node/6956629810,Dr. M.R. Bhagwat Memorial Hospital,Hospital,RAIPUR,21.2439374,81.6145067,-6.336,0.5,277.637,20.5,76.37,40.0,16.592264382331017,1.0,-2.375158372318481,0,0,0,1,0.4781826078822488,Medium,2026-03-14 02:31:42,28.9609738463444,-6.336,-277.637,-2.375158372318481,1.0
node/6956629815,Kalda Plastic and Cosmetic Surgery Institute and Burn Centre,Hospital,RAIPUR,21.2166146,81.6572553,-6.336,0.5,277.637,20.5,76.37,40.0,15.51514671204701,1.0,-2.375158372318481,0,0,0,1,0.4781826078822488,Medium,2026-03-14 02:31:42,28.9609738463444,-6.336,-277.637,-2.375158372318481,1.0
node/6956629976,Vidya Hospital And Kidney Centre,Hospital,RAIPUR,21.2491409,81.6617082,-6.336,0.5,277.637,20.5,76.37,40.0,18.877992997829086,1.0,-2.375158372318481,0,0,0,1,0.4781826078822488,Medium,2026-03-14 02:31:42,28.9609738463444,-6.336,-277.637,-2.375158372318481,1.0
node/6956655133,Shri Aurobindo Medical Research Centre,Hospital,RAIPUR,21.2145777,81.6542597,-6.336,0.5,277.637,20.5,76.37,40.0,15.157984429552657,1.0,-2.375158372318481,0,0,0,1,0.4781826078822488,Medium,2026-03-14 02:31:42,28.9609738463444,-6.336,-277.637,-2.375158372318481,1.0
node/6956655140,Shree Sai Care Hospital,Hospital,RAIPUR,21.2398899,81.6698393,-6.336,0.5,277.637,20.5,76.37,40.0,18.40111323561792,1.0,-2.375158372318481,0,0,0,1,0.4781826078822488,Medium,2026-03-14 02:31:42,28.9609738463444,-6.336,-277.637,-2.375158372318481,1.0
node/6956655145,Shree Medishine Hospital - Raipur,Hospital,RAIPUR,21.2200322,81.6655757,-6.336,0.5,277.637,20.5,76.37,40.0,16.30728127841694,1.0,-2.375158372318481,0,0,0,1,0.4781826078822488,Medium,2026-03-14 02:31:42,28.9609738463444,-6.336,-277.637,-2.375158372318481,1.0
node/6956655152,Sarvodaya Hospital and Maternity Center,Hospital,RAIPUR,21.2715555,81.6710436,-6.336,0.5,277.637,20.5,76.37,40.0,21.536249216322688,1.0,-2.375158372318481,0,0,0,1,0.4781826078822488,Medium,2026-03-14 02:31:42,28.9609738463444,-6.336,-277.637,-2.375158372318481,1.0
node/6957120029,Visharad Hospital,Hospital,RAIPUR,21.2391162,81.6413422,-6.336,0.5,277.637,20.5,76.37,40.0,16.96222281182811,1.0,-2.375158372318481,0,0,0,1,0.4781826078822488,Medium,2026-03-14 02:31:42,28.9609738463444,-6.336,-277.637,-2.375158372318481,1.0
node/6957120034,Urmila Memorial Multispeciality Hospital,Hospital,RAIPUR,21.2582818,81.6553302,-6.336,0.5,277.637,20.5,76.37,40.0,19.49829653244447,1.0,-2.375158372318481,0,0,0,1,0.4781826078822488,Medium,2026-03-14 02:31:42,28.9609738463444,-6.336,-277.637,-2.375158372318481,1.0
node/6957120039,"Upadhyay Hospital, Raipur",Hospital,RAIPUR,21.2625908,81.5873668,-6.336,0.5,277.637,20.5,76.37,40.0,18.234869623715333,1.0,-2.375158372318481,0,0,0,1,0.4781826078822488,Medium,2026-03-14 02:31:42,28.9609738463444,-6.336,-277.637,-2.375158372318481,1.0
node/6957120057,Subham Hospital and Maternity Home,Hospital,RAIPUR,21.2599874,81.6282919,-6.336,0.5,277.637,20.5,76.37,40.0,18.68774165949676,1.0,-2.375158372318481,0,0,0,1,0.4781826078822488,Medium,2026-03-14 02:31:42,28.9609738463444,-6.336,-277.637,-2.375158372318481,1.0
node/6957120062,Subba Rao Hospital,Hospital,RAIPUR,21.2570692,81.6373428,-6.336,0.5,277.637,20.5,76.37,40.0,18.670440086120035,1.0,-2.375158372318481,0,0,0,1,0.4781826078822488,Medium,2026-03-14 02:31:42,28.9609738463444,-6.336,-277.637,-2.375158372318481,1.0
node/6957120067,Srimaa Sarada Arogyadham,Hospital,RAIPUR,21.2308046,81.5954804,-6.336,0.5,277.637,20.5,76.37,40.0,14.79375149500088,1.0,-2.375158372318481,0,0,0,1,0.4781826078822488,Medium,2026-03-14 02:31:42,28.9609738463444,-6.336,-277.637,-2.375158372318481,1.0
node/6957120077,Sobhagya Hospital,Hospital,RAIPUR,21.2740474,81.6335745,-6.336,0.5,277.637,20.5,76.37,40.0,20.342470637830054,1.0,-2.375158372318481,0,0,0,1,0.4781826078822488,Medium,2026-03-14 02:31:42,28.9609738463444,-6.336,-277.637,-2.375158372318481,1.0
node/6957120082,"Shri Ram Hospital, Raipur",Hospital,RAIPUR,21.2361049,81.6117065,-6.336,0.5,277.637,20.5,76.37,40.0,15.677723641909925,1.0,-2.375158372318481,0,0,0,1,0.4781826078822488,Medium,2026-03-14 02:31:42,28.9609738463444,-6.336,-277.637,-2.375158372318481,1.0
node/6957133287,Shri Balaji Institute Of Medical Science Pvt Ltd,Hospital,RAIPUR,21.2724251,81.6717492,-6.336,0.5,277.637,20.5,76.37,40.0,21.65559161272053,1.0,-2.375158372318481,0,0,0,1,0.4781826078822488,Medium,2026-03-14 02:31:42,28.9609738463444,-6.336,-277.637,-2.375158372318481,1.0
node/6957503647,"Pathak Hospital, Raipur",Hospital,RAIPUR,21.264633,81.6358182,-6.336,0.5,277.637,20.5,76.37,40.0,19.41448699691708,1.0,-2.375158372318481,0,0,0,1,0.4781826078822488,Medium,2026-03-14 02:31:42,28.9609738463444,-6.336,-277.637,-2.375158372318481,1.0
node/6957503652,Gbg Kidney Care Hospital,Hospital,RAIPUR,21.2259317,81.6585526,-6.336,0.5,277.637,20.5,76.37,40.0,16.46728100872909,1.0,-2.375158372318481,0,0,0,1,0.4781826078822488,Medium,2026-03-14 02:31:42,28.9609738463444,-6.336,-277.637,-2.375158372318481,1.0
node/6965495354,Modi Hospital,Hospital,RAIPUR,21.2462123,81.6186909,-6.336,0.5,277.637,20.5,76.37,40.0,16.943863017401323,1.0,-2.375158372318481,0,0,0,1,0.4781826078822488,Medium,2026-03-14 02:31:42,28.9609738463444,-6.336,-277.637,-2.375158372318481,1.0
node/6965495359,Jagjivan Urology Centre,Hospital,RAIPUR,21.2461698,81.6239078,-6.336,0.5,277.637,20.5,76.37,40.0,17.08552977031182,1.0,-2.375158372318481,0,0,0,1,0.4781826078822488,Medium,2026-03-14 02:31:42,28.9609738463444,-6.336,-277.637,-2.375158372318481,1.0
node/6965495374,Sahai Hospital,Hospital,RAIPUR,21.2230452,81.656616,-6.336,0.5,277.637,20.5,76.37,40.0,16.088784816732165,1.0,-2.375158372318481,0,0,0,1,0.4781826078822488,Medium,2026-03-14 02:31:42,28.9609738463444,-6.336,-277.637,-2.375158372318481,1.0
node/6965495384,"Pragya Hospital, Raipur",Hospital,RAIPUR,21.2443828,81.6601836,-6.336,0.5,277.637,20.5,76.37,40.0,18.3365297911126,1.0,-2.375158372318481,0,0,0,1,0.4781826078822488,Medium,2026-03-14 02:31:42,28.9609738463444,-6.336,-277.637,-2.375158372318481,1.0
node/6965497689,P D Jethani Memorial Hospital and Diagnostic Center,Hospital,RAIPUR,21.2789978,81.6376406,-6.336,0.5,277.637,20.5,76.37,40.0,20.992574494437086,1.0,-2.375158372318481,0,0,0,1,0.4781826078822488,Medium,2026-03-14 02:31:42,28.9609738463444,-6.336,-277.637,-2.375158372318481,1.0
node/6965497699,Nigam Ent Hospital,Hospital,RAIPUR,21.2472973,81.6568963,-6.336,0.5,277.637,20.5,76.37,40.0,18.467545414091664,1.0,-2.375158372318481,0,0,0,1,0.4781826078822488,Medium,2026-03-14 02:31:42,28.9609738463444,-6.336,-277.637,-2.375158372318481,1.0
node/6965497709,Ganpati Hospital (Banthia Hospital),Hospital,RAIPUR,21.2458836,81.6474972,-6.336,0.5,277.637,20.5,76.37,40.0,17.907495225200716,1.0,-2.375158372318481,0,0,0,1,0.4781826078822488,Medium,2026-03-14 02:31:42,28.9609738463444,-6.336,-277.637,-2.375158372318481,1.0
node/6965497714,"Yashwant Hospital, Raipur",Hospital,RAIPUR,21.2399062,81.62751,-6.336,0.5,277.637,20.5,76.37,40.0,16.533794830633486,1.0,-2.375158372318481,0,0,0,1,0.4781826078822488,Medium,2026-03-14 02:31:42,28.9609738463444,-6.336,-277.637,-2.375158372318481,1.0
node/6965497719,"Tripathi Hospital, Raipur",Hospital,RAIPUR,21.2495084,81.6579813,-6.336,0.5,277.637,20.5,76.37,40.0,18.737720786737725,1.0,-2.375158372318481,0,0,0,1,0.4781826078822488,Medium,2026-03-14 02:31:42,28.9609738463444,-6.336,-277.637,-2.375158372318481,1.0
node/6965497724,Jeewan Memorial Hospital For Plastic Surgery and Uro,Hospital,RAIPUR,21.2496099,81.6580936,-6.336,0.5,277.637,20.5,76.37,40.0,18.753029704726842,1.0,-2.375158372318481,0,0,0,1,0.4781826078822488,Medium,2026-03-14 02:31:42,28.9609738463444,-6.336,-277.637,-2.375158372318481,1.0
node/6965497729,Om Netra Kendra,Hospital,RAIPUR,21.2487035,81.6448975,-6.336,0.5,277.637,20.5,76.37,40.0,18.087419083678384,1.0,-2.375158372318481,0,0,0,1,0.4781826078822488,Medium,2026-03-14 02:31:42,28.9609738463444,-6.336,-277.637,-2.375158372318481,1.0
node/6965497734,Roopjeevan Hospital,Hospital,RAIPUR,21.2567003,81.6410096,-6.336,0.5,277.637,20.5,76.37,40.0,18.763009631135493,1.0,-2.375158372318481,0,0,0,1,0.4781826078822488,Medium,2026-03-14 02:31:42,28.9609738463444,-6.336,-277.637,-2.375158372318481,1.0
node/6965497739,Jubesta Hospital,Hospital,RAIPUR,21.257246,81.6435068,-6.336,0.5,277.637,20.5,76.37,40.0,18.912707198964448,1.0,-2.375158372318481,0,0,0,1,0.4781826078822488,Medium,2026-03-14 02:31:42,28.9609738463444,-6.336,-277.637,-2.375158372318481,1.0
node/6965497744,"Jain Hospital, Raipur",Hospital,RAIPUR,21.2559026,81.6448666,-6.336,0.5,277.637,20.5,76.37,40.0,18.82600723148675,1.0,-2.375158372318481,0,0,0,1,0.4781826078822488,Medium,2026-03-14 02:31:42,28.9609738463444,-6.336,-277.637,-2.375158372318481,1.0
node/6965497749,Dr. Rajehwari Kulkarni Surgical Hospital And Dia,Hospital,RAIPUR,21.2573909,81.6466855,-6.336,0.5,277.637,20.5,76.37,40.0,19.05035440968953,1.0,-2.375158372318481,0,0,0,1,0.4781826078822488,Medium,2026-03-14 02:31:42,28.9609738463444,-6.336,-277.637,-2.375158372318481,1.0
node/6965497759,Ekta Institute Of Child Health,Hospital,RAIPUR,21.2471211,81.6566214,-6.336,0.5,277.637,20.5,76.37,40.0,18.43725217723442,1.0,-2.375158372318481,0,0,0,1,0.4781826078822488,Medium,2026-03-14 02:31:42,28.9609738463444,-6.336,-277.637,-2.375158372318481,1.0
node/6965834116,Ayush Hospital and Maternity Home,Hospital,RAIPUR,21.2623121,81.6739498,-6.336,0.5,277.637,20.5,76.37,40.0,20.769578803736913,1.0,-2.375158372318481,0,0,0,1,0.4781826078822488,Medium,2026-03-14 02:31:42,28.9609738463444,-6.336,-277.637,-2.375158372318481,1.0
node/6965834121,Ayushman Hospital and Diagnostic Institute,Hospital,RAIPUR,21.2345823,81.6097793,-6.336,0.5,277.637,20.5,76.37,40.0,15.467794399515745,1.0,-2.375158372318481,0,0,0,1,0.4781826078822488,Medium,2026-03-14 02:31:42,28.9609738463444,-6.336,-277.637,-2.375158372318481,1.0
node/6965834122,Bachpan Hospital,Hospital,RAIPUR,21.2293683,81.6000053,-6.336,0.5,277.637,20.5,76.37,40.0,14.704392298119954,1.0,-2.375158372318481,0,0,0,1,0.4781826078822488,Medium,2026-03-14 02:31:42,28.9609738463444,-6.336,-277.637,-2.375158372318481,1.0
node/6965834136,Bhattar Hospital,Hospital,RAIPUR,21.242349,81.6395467,-6.336,0.5,277.637,20.5,76.37,40.0,17.222186517819633,1.0,-2.375158372318481,0,0,0,1,0.4781826078822488,Medium,2026-03-14 02:31:42,28.9609738463444,-6.336,-277.637,-2.375158372318481,1.0
node/6965834146,City Hospital And Research Centre,Hospital,RAIPUR,21.2465523,81.6100636,-6.336,0.5,277.637,20.5,76.37,40.0,16.774694016279092,1.0,-2.375158372318481,0,0,0,1,0.4781826078822488,Medium,2026-03-14 02:31:42,28.9609738463444,-6.336,-277.637,-2.375158372318481,1.0
node/6965834156,Devkripa Hospital and Doctor Plaza,Hospital,RAIPUR,21.2510058,81.6685317,-6.336,0.5,277.637,20.5,76.37,40.0,19.398112933430276,1.0,-2.375158372318481,0,0,0,1,0.4781826078822488,Medium,2026-03-14 02:31:42,28.9609738463444,-6.336,-277.637,-2.375158372318481,1.0
node/6965834161,Dr. Jaulkar Ent Hospital,Hospital,RAIPUR,21.2471581,81.6123417,-6.336,0.5,277.637,20.5,76.37,40.0,16.89038420444015,1.0,-2.375158372318481,0,0,0,1,0.4781826078822488,Medium,2026-03-14 02:31:42,28.9609738463444,-6.336,-277.637,-2.375158372318481,1.0
node/6965834166,Dr. Sandeep Bhagwat Orthopedic Hospital,Hospital,RAIPUR,21.2491114,81.6453123,-6.336,0.5,277.637,20.5,76.37,40.0,18.145956437165584,1.0,-2.375158372318481,0,0,0,1,0.4781826078822488,Medium,2026-03-14 02:31:42,28.9609738463444,-6.336,-277.637,-2.375158372318481,1.0
node/6965834176,Eye and Ent Hospital,Hospital,RAIPUR,21.2495993,81.6461378,-6.336,0.5,277.637,20.5,76.37,40.0,18.22942198550889,1.0,-2.375158372318481,0,0,0,1,0.4781826078822488,Medium,2026-03-14 02:31:42,28.9609738463444,-6.336,-277.637,-2.375158372318481,1.0
node/6965834177,"Heritage Hospital, Raipur",Hospital,RAIPUR,21.2604399,81.6429824,-6.336,0.5,277.637,20.5,76.37,40.0,19.2243393304369,1.0,-2.375158372318481,0,0,0,1,0.4781826078822488,Medium,2026-03-14 02:31:42,28.9609738463444,-6.336,-277.637,-2.375158372318481,1.0
node/6965834182,Jyoti Hospital and Prasuti Griha,Hospital,RAIPUR,21.5563958,81.8090755,-6.495,1.0,286.786,20.5,76.37,40.0,17.678868281181657,1.0,-2.375158372318481,0,0,0,1,0.3943011502265597,High,2026-03-14 02:31:42,22.082694318577897,-6.495,-286.786,-2.375158372318481,1.0
node/6965836187,K G N Surical and Maternity Centre,Hospital,RAIPUR,21.2342586,81.645458,-6.336,0.5,277.637,20.5,76.37,40.0,16.64475124891032,1.0,-2.375158372318481,0,0,0,1,0.4781826078822488,Medium,2026-03-14 02:31:42,28.9609738463444,-6.336,-277.637,-2.375158372318481,1.0
node/6965836192,K.M. Hospital,Hospital,RAIPUR,21.2438524,81.6384199,-6.336,0.5,277.637,20.5,76.37,40.0,17.33382416932682,1.0,-2.375158372318481,0,0,0,1,0.4781826078822488,Medium,2026-03-14 02:31:42,28.9609738463444,-6.336,-277.637,-2.375158372318481,1.0
node/6965836197,M. M. Hospital,Hospital,RAIPUR,21.2605318,81.6367264,-6.336,0.5,277.637,20.5,76.37,40.0,19.012641097855983,1.0,-2.375158372318481,0,0,0,1,0.4781826078822488,Medium,2026-03-14 02:31:42,28.9609738463444,-6.336,-277.637,-2.375158372318481,1.0
node/6965836202,Mahadev Hospital,Hospital,RAIPUR,21.2294448,81.597827,-6.336,0.5,277.637,20.5,76.37,40.0,14.6777653248017,1.0,-2.375158372318481,0,0,0,1,0.4781826078822488,Medium,2026-03-14 02:31:42,28.9609738463444,-6.336,-277.637,-2.375158372318481,1.0
node/6965836211,Mishra Speciality Hospital,Hospital,RAIPUR,21.2615844,81.6380407,-6.336,0.5,277.637,20.5,76.37,40.0,19.167923827983326,1.0,-2.375158372318481,0,0,0,1,0.4781826078822488,Medium,2026-03-14 02:31:42,28.9609738463444,-6.336,-277.637,-2.375158372318481,1.0
node/6965836216,Matra Smriti Hospital,Hospital,RAIPUR,21.2686163,81.6197897,-6.336,0.5,277.637,20.5,76.37,40.0,19.38858153187538,1.0,-2.375158372318481,0,0,0,1,0.4781826078822488,Medium,2026-03-14 02:31:42,28.9609738463444,-6.336,-277.637,-2.375158372318481,1.0
node/6965836221,M D Hospital and Iccu,Hospital,RAIPUR,21.2465873,81.6236986,-6.336,0.5,277.637,20.5,76.37,40.0,17.123877637186084,1.0,-2.375158372318481,0,0,0,1,0.4781826078822488,Medium,2026-03-14 02:31:42,28.9609738463444,-6.336,-277.637,-2.375158372318481,1.0
node/6966522779,Mgm Eye Hospital,Hospital,RAIPUR,21.2783101,81.7026642,-6.336,1.0,286.786,20.5,76.37,40.0,21.34620195383137,1.0,-2.375158372318481,0,0,0,1,0.4012286510979435,Medium,2026-03-14 02:31:42,22.650749390031365,-6.336,-286.786,-2.375158372318481,1.0
node/6966551463,Suprita Hospital,Hospital,RAIPUR,21.2564347,81.6388497,-6.336,0.5,277.637,20.5,76.37,40.0,18.657167974361865,1.0,-2.375158372318481,0,0,0,1,0.4781826078822488,Medium,2026-03-14 02:31:42,28.9609738463444,-6.336,-277.637,-2.375158372318481,1.0
node/6966792004,Evangelical Mission Hospital,Hospital,RAIPUR,21.5540159,81.7903335,-6.495,1.0,286.786,20.5,76.37,40.0,18.08791782006789,1.0,-2.375158372318481,0,0,0,1,0.3943011502265597,High,2026-03-14 02:31:42,22.082694318577897,-6.495,-286.786,-2.375158372318481,1.0
node/6966792010,Lifeworth Super Speciality Hospital,Hospital,RAIPUR,21.2456986,81.6175885,-6.336,0.5,277.637,20.5,76.37,40.0,16.859710436877236,1.0,-2.375158372318481,0,0,0,1,0.4781826078822488,Medium,2026-03-14 02:31:42,28.9609738463444,-6.336,-277.637,-2.375158372318481,1.0
node/6966904907,Shri Manulal Memorial Medical Centre,Hospital,RAIPUR,21.2363311,81.6213289,-6.336,0.5,277.637,20.5,76.37,40.0,15.960819118288116,1.0,-2.375158372318481,0,0,0,1,0.4781826078822488,Medium,2026-03-14 02:31:42,28.9609738463444,-6.336,-277.637,-2.375158372318481,1.0
node/6966904930,"Sahu Hospital, Raipur",Hospital,RAIPUR,21.2554704,81.6406797,-6.336,0.5,277.637,20.5,76.37,40.0,18.62301538699008,1.0,-2.375158372318481,0,0,0,1,0.4781826078822488,Medium,2026-03-14 02:31:42,28.9609738463444,-6.336,-277.637,-2.375158372318481,1.0
node/6966904976,Agrasen Hospital,Hospital,RAIPUR,21.2454224,81.6245992,-6.336,0.5,277.637,20.5,76.37,40.0,17.026556649304872,1.0,-2.375158372318481,0,0,0,1,0.4781826078822488,Medium,2026-03-14 02:31:42,28.9609738463444,-6.336,-277.637,-2.375158372318481,1.0
node/6968263373,Pt.J N M Medical College Hospital,Hospital,RAIPUR,21.251975,81.6391427,-6.336,0.5,277.637,20.5,76.37,40.0,18.203117842261094,1.0,-2.375158372318481,0,0,0,1,0.4781826078822488,Medium,2026-03-14 02:31:42,28.9609738463444,-6.336,-277.637,-2.375158372318481,1.0
node/6968280740,"Kanwar Hospital, Raipur",Hospital,RAIPUR,21.2532719,81.6651843,-6.336,0.5,277.637,20.5,76.37,40.0,19.452548134440175,1.0,-2.375158372318481,0,0,0,1,0.4781826078822488,Medium,2026-03-14 02:31:42,28.9609738463444,-6.336,-277.637,-2.375158372318481,1.0
node/6968280745,Raipur Hospital,Hospital,RAIPUR,21.2468461,81.6415286,-6.336,0.5,277.637,20.5,76.37,40.0,17.762780193182486,1.0,-2.375158372318481,0,0,0,1,0.4781826078822488,Medium,2026-03-14 02:31:42,28.9609738463444,-6.336,-277.637,-2.375158372318481,1.0
node/6968280774,"Sanjeewan Hospital, Raipur",Hospital,RAIPUR,21.2208074,81.6410136,-6.336,0.5,277.637,20.5,76.37,40.0,15.097189859494582,1.0,-2.375158372318481,0,0,0,1,0.4781826078822488,Medium,2026-03-14 02:31:42,28.9609738463444,-6.336,-277.637,-2.375158372318481,1.0
node/6968280856,Arihant Netralaya,Hospital,RAIPUR,21.2359599,81.6381209,-6.336,0.5,277.637,20.5,76.37,40.0,16.50899413718063,1.0,-2.375158372318481,0,0,0,1,0.4781826078822488,Medium,2026-03-14 02:31:42,28.9609738463444,-6.336,-277.637,-2.375158372318481,1.0
node/7148125099,Govt. T.B. Hospital,Hospital,RAIPUR,21.2346921,81.6389363,-6.336,0.5,277.637,20.5,76.37,40.0,16.41187561678426,1.0,-2.375158372318481,0,0,0,1,0.4781826078822488,Medium,2026-03-14 02:31:42,28.9609738463444,-6.336,-277.637,-2.375158372318481,1.0
node/7148125111,Government Hospital Farfoud,Hospital,RAIPUR,21.2743757,81.9506788,-1.2,1.5,258.041,20.5,76.37,40.0,14.405374638299355,1.0,-2.375158372318481,0,0,0,1,0.625,Medium,2026-03-14 02:31:42,41.0,-1.2,-258.041,-2.375158372318481,1.0
node/7148125120,Government Hospital Uparwara,Hospital,RAIPUR,21.117467,81.764341,-6.938,0.5,277.637,20.5,76.37,40.0,19.548846705245516,1.0,-2.375158372318481,0,0,0,1,0.4519539567843054,Medium,2026-03-14 02:31:42,26.81022445631304,-6.938,-277.637,-2.375158372318481,1.0
node/7148125143,"Government Hospital, Tilda",Hospital,RAIPUR,21.5498742,81.7969593,-6.495,1.0,286.786,20.5,76.37,40.0,17.4029465967407,1.0,-2.375158372318481,0,0,0,1,0.3943011502265597,High,2026-03-14 02:31:42,22.082694318577897,-6.495,-286.786,-2.375158372318481,1.0
node/7148125202,"Government hospital,Khokhopara",Hospital,RAIPUR,21.23239,81.6223248,-6.336,0.5,277.637,20.5,76.37,40.0,15.572628136820612,1.0,-2.375158372318481,0,0,0,1,0.4781826078822488,Medium,2026-03-14 02:31:42,28.9609738463444,-6.336,-277.637,-2.375158372318481,1.0
node/7148125239,Government hospital arang,Hospital,RAIPUR,21.1940118,81.9703912,-6.938,1.5,258.041,20.5,76.37,40.0,6.23510568411987,1.0,-2.375158372318481,0,0,0,1,0.375,High,2026-03-14 02:31:42,20.5,-6.938,-258.041,-2.375158372318481,1.0
node/7148125255,District Hospital Raipur,Hospital,RAIPUR,21.2317387,81.6401796,-6.336,0.5,277.637,20.5,76.37,40.0,16.16212387267672,1.0,-2.375158372318481,0,0,0,1,0.4781826078822488,Medium,2026-03-14 02:31:42,28.9609738463444,-6.336,-277.637,-2.375158372318481,1.0
node/7148125257,Goverment hospital Gobra Nawapara,Hospital,RAIPUR,20.9675515,81.8588705,-6.938,1.5,258.041,20.5,76.37,40.0,27.309489040031455,1.0,-2.375158372318481,0,0,0,1,0.375,High,2026-03-14 02:31:42,20.5,-6.938,-258.041,-2.375158372318481,1.0
node/7148125258,Shri Khudadad Dungaji Government Ayurved College Hospital,Hospital,RAIPUR,21.244933,81.605817,-6.336,0.5,277.637,20.5,76.37,40.0,16.513014400811798,1.0,-2.375158372318481,0,0,0,1,0.4781826078822488,Medium,2026-03-14 02:31:42,28.9609738463444,-6.336,-277.637,-2.375158372318481,1.0
node/7148125308,Government Hospital,Hospital,RAIPUR,21.2300217,81.6598785,-6.336,0.5,277.637,20.5,76.37,40.0,16.928412847158455,1.0,-2.375158372318481,0,0,0,1,0.4781826078822488,Medium,2026-03-14 02:31:42,28.9609738463444,-6.336,-277.637,-2.375158372318481,1.0
node/7148125312,Labhandhi Government Hospital,Hospital,RAIPUR,21.244877,81.703673,-6.336,0.5,277.637,20.5,76.37,40.0,20.88504057817959,1.0,-2.375158372318481,0,0,0,1,0.4781826078822488,Medium,2026-03-14 02:31:42,28.9609738463444,-6.336,-277.637,-2.375158372318481,1.0
node/7288964595,Shri Balaji Hospital,Hospital,RAIPUR,21.2261487,81.6397097,-6.336,0.5,277.637,20.5,76.37,40.0,15.575665543054285,1.0,-2.375158372318481,0,0,0,1,0.4781826078822488,Medium,2026-03-14 02:31:42,28.9609738463444,-6.336,-277.637,-2.375158372318481,1.0
node/7288964599,Jeevan Anmol Hospital,Hospital,RAIPUR,21.2250565,81.6531985,-6.336,0.5,277.637,20.5,76.37,40.0,16.10413720584849,1.0,-2.375158372318481,0,0,0,1,0.4781826078822488,Medium,2026-03-14 02:31:42,28.9609738463444,-6.336,-277.637,-2.375158372318481,1.0
node/7288964602,Madhumeet Hospital,Hospital,RAIPUR,21.2401655,81.6698864,-6.336,0.5,277.637,20.5,76.37,40.0,18.429780124745776,1.0,-2.375158372318481,0,0,0,1,0.4781826078822488,Medium,2026-03-14 02:31:42,28.9609738463444,-6.336,-277.637,-2.375158372318481,1.0
node/7288964603,Shri Krishna Hospital,Hospital,RAIPUR,21.223641,81.660207,-6.336,0.5,277.637,20.5,76.37,40.0,16.33933605291821,1.0,-2.375158372318481,0,0,0,1,0.4781826078822488,Medium,2026-03-14 02:31:42,28.9609738463444,-6.336,-277.637,-2.375158372318481,1.0
node/7288964610,Raipura Hospital,Hospital,RAIPUR,21.2321504,81.6035435,-6.336,0.5,277.637,20.5,76.37,40.0,15.072513864061069,1.0,-2.375158372318481,0,0,0,1,0.4781826078822488,Medium,2026-03-14 02:31:42,28.9609738463444,-6.336,-277.637,-2.375158372318481,1.0
node/7288964613,Awasthi Hospital,Hospital,RAIPUR,21.231624,81.6540067,-6.336,0.5,277.637,20.5,76.37,40.0,16.783812841394212,1.0,-2.375158372318481,0,0,0,1,0.4781826078822488,Medium,2026-03-14 02:31:42,28.9609738463444,-6.336,-277.637,-2.375158372318481,1.0
node/7288964616,Om Superspeciality Hospital,Hospital,RAIPUR,21.2292542,81.5986728,-6.336,0.5,277.637,20.5,76.37,40.0,14.670018131320502,1.0,-2.375158372318481,0,0,0,1,0.4781826078822488,Medium,2026-03-14 02:31:42,28.9609738463444,-6.336,-277.637,-2.375158372318481,1.0
node/7288964641,Kankali Hospital Parisar,Hospital,RAIPUR,21.23854,81.62784,-6.336,0.5,277.637,20.5,76.37,40.0,16.40077860247077,1.0,-2.375158372318481,0,0,0,1,0.4781826078822488,Medium,2026-03-14 02:31:42,28.9609738463444,-6.336,-277.637,-2.375158372318481,1.0
node/7288964642,Anjali Children Hospital,Hospital,RAIPUR,21.22115,81.649675,-6.336,0.5,277.637,20.5,76.37,40.0,15.546723716666163,1.0,-2.375158372318481,0,0,0,1,0.4781826078822488,Medium,2026-03-14 02:31:42,28.9609738463444,-6.336,-277.637,-2.375158372318481,1.0
node/7288964644,We Care Super Specialty Hospital,Hospital,RAIPUR,21.235399,81.668942,-6.336,0.5,277.637,20.5,76.37,40.0,17.927928827468712,1.0,-2.375158372318481,0,0,0,1,0.4781826078822488,Medium,2026-03-14 02:31:42,28.9609738463444,-6.336,-277.637,-2.375158372318481,1.0
node/7288964648,District Police Hospital,Hospital,RAIPUR,21.2307216,81.6449518,-6.336,0.5,277.637,20.5,76.37,40.0,16.267158046755828,1.0,-2.375158372318481,0,0,0,1,0.4781826078822488,Medium,2026-03-14 02:31:42,28.9609738463444,-6.336,-277.637,-2.375158372318481,1.0
node/7288964653,Dr Manoj Agrwal,Hospital,RAIPUR,21.2437894,81.6504829,-6.336,0.5,277.637,20.5,76.37,40.0,17.82544430287203,1.0,-2.375158372318481,0,0,0,1,0.4781826078822488,Medium,2026-03-14 02:31:42,28.9609738463444,-6.336,-277.637,-2.375158372318481,1.0
node/7288964658,Avanti Hospital,Hospital,RAIPUR,21.2408235,81.6696319,-6.336,0.5,277.637,20.5,76.37,40.0,18.478435141233753,1.0,-2.375158372318481,0,0,0,1,0.4781826078822488,Medium,2026-03-14 02:31:42,28.9609738463444,-6.336,-277.637,-2.375158372318481,1.0
node/7288964664,Anand Shree Hospital,Hospital,RAIPUR,21.233519,81.604322,-6.336,0.5,277.637,20.5,76.37,40.0,15.236982376994355,1.0,-2.375158372318481,0,0,0,1,0.4781826078822488,Medium,2026-03-14 02:31:42,28.9609738463444,-6.336,-277.637,-2.375158372318481,1.0
node/7288964666,Life Line Hospital,Hospital,RAIPUR,21.2328853,81.605519,-6.336,0.5,277.637,20.5,76.37,40.0,15.191479268648443,1.0,-2.375158372318481,0,0,0,1,0.4781826078822488,Medium,2026-03-14 02:31:42,28.9609738463444,-6.336,-277.637,-2.375158372318481,1.0
node/7288964673,Shri Jagannath Multispeciality Hospital,Hospital,RAIPUR,21.22998,81.600057,-6.336,0.5,277.637,20.5,76.37,40.0,14.772376939586392,1.0,-2.375158372318481,0,0,0,1,0.4781826078822488,Medium,2026-03-14 02:31:42,28.9609738463444,-6.336,-277.637,-2.375158372318481,1.0
node/7288964676,Gayatri Hospital,Hospital,RAIPUR,21.239345,81.6038105,-6.336,0.5,277.637,20.5,76.37,40.0,15.864510372294516,1.0,-2.375158372318481,0,0,0,1,0.4781826078822488,Medium,2026-03-14 02:31:42,28.9609738463444,-6.336,-277.637,-2.375158372318481,1.0
node/7288964679,Vijaya durga hospital,Hospital,RAIPUR,21.235824,81.63491,-6.336,0.5,277.637,20.5,76.37,40.0,16.369888335326085,1.0,-2.375158372318481,0,0,0,1,0.4781826078822488,Medium,2026-03-14 02:31:42,28.9609738463444,-6.336,-277.637,-2.375158372318481,1.0
node/7288964681,Rajdhani Super Speciality Hospital,Hospital,RAIPUR,21.2190325,81.6483451,-6.336,0.5,277.637,20.5,76.37,40.0,15.273955777475466,1.0,-2.375158372318481,0,0,0,1,0.4781826078822488,Medium,2026-03-14 02:31:42,28.9609738463444,-6.336,-277.637,-2.375158372318481,1.0
node/7288964683,Dr Nigam Hospital,Hospital,RAIPUR,21.2350371,81.6517301,-6.336,0.5,277.637,20.5,76.37,40.0,17.009554438841942,1.0,-2.375158372318481,0,0,0,1,0.4781826078822488,Medium,2026-03-14 02:31:42,28.9609738463444,-6.336,-277.637,-2.375158372318481,1.0
node/7288964686,Shubham Hospital,Hospital,RAIPUR,21.23422,81.610285,-6.336,0.5,277.637,20.5,76.37,40.0,15.440156624737488,1.0,-2.375158372318481,0,0,0,1,0.4781826078822488,Medium,2026-03-14 02:31:42,28.9609738463444,-6.336,-277.637,-2.375158372318481,1.0
node/7291844243,Virdi Hospital,Hospital,RAIPUR,21.2496368,81.628347,-6.336,0.5,277.637,20.5,76.37,40.0,17.58934473474204,1.0,-2.375158372318481,0,0,0,1,0.4781826078822488,Medium,2026-03-14 02:31:42,28.9609738463444,-6.336,-277.637,-2.375158372318481,1.0
node/7291844245,DKS Super Speciality Hospital,Hospital,RAIPUR,21.2449632,81.6412379,-6.336,0.5,277.637,20.5,76.37,40.0,17.557586760191843,1.0,-2.375158372318481,0,0,0,1,0.4781826078822488,Medium,2026-03-14 02:31:42,28.9609738463444,-6.336,-277.637,-2.375158372318481,1.0
node/7291844258,Mamta Hospital,Hospital,RAIPUR,21.246905,81.631597,-6.336,0.5,277.637,20.5,76.37,40.0,17.40689616140486,1.0,-2.375158372318481,0,0,0,1,0.4781826078822488,Medium,2026-03-14 02:31:42,28.9609738463444,-6.336,-277.637,-2.375158372318481,1.0
node/7291844264,"Om Hospital , Burn Plastic & Cosmetic Surgery Center",Hospital,RAIPUR,21.2451108,81.6301308,-6.336,0.5,277.637,20.5,76.37,40.0,17.16895694861335,1.0,-2.375158372318481,0,0,0,1,0.4781826078822488,Medium,2026-03-14 02:31:42,28.9609738463444,-6.336,-277.637,-2.375158372318481,1.0
node/7291844275,Shri Mahaveer Hospital,Hospital,RAIPUR,21.25007,81.6625026,-6.336,0.5,277.637,20.5,76.37,40.0,19.00777646040735,1.0,-2.375158372318481,0,0,0,1,0.4781826078822488,Medium,2026-03-14 02:31:42,28.9609738463444,-6.336,-277.637,-2.375158372318481,1.0
node/7291844281,Lotus Hospital & Advance Urology Center,Hospital,RAIPUR,21.2468938,81.6485864,-6.336,0.5,277.637,20.5,76.37,40.0,18.056241059390942,1.0,-2.375158372318481,0,0,0,1,0.4781826078822488,Medium,2026-03-14 02:31:42,28.9609738463444,-6.336,-277.637,-2.375158372318481,1.0
node/7291844299,Chand Rani Sardari Lal Speciality EYE And ENT Hospital,Hospital,RAIPUR,21.2463682,81.6546202,-6.336,0.5,277.637,20.5,76.37,40.0,18.2700373475947,1.0,-2.375158372318481,0,0,0,1,0.4781826078822488,Medium,2026-03-14 02:31:42,28.9609738463444,-6.336,-277.637,-2.375158372318481,1.0
node/7291844302,Petals Newborn And Children Hospital,Hospital,RAIPUR,21.245081,81.6245086,-6.336,0.5,277.637,20.5,76.37,40.0,16.98750394482523,1.0,-2.375158372318481,0,0,0,1,0.4781826078822488,Medium,2026-03-14 02:31:42,28.9609738463444,-6.336,-277.637,-2.375158372318481,1.0
node/7291844307,Shashwat Hospital,Hospital,RAIPUR,21.244077,81.630207,-6.336,0.5,277.637,20.5,76.37,40.0,17.062697240962354,1.0,-2.375158372318481,0,0,0,1,0.4781826078822488,Medium,2026-03-14 02:31:42,28.9609738463444,-6.336,-277.637,-2.375158372318481,1.0
node/7291844314,Sagar Multi Speciality Hospital,Hospital,RAIPUR,21.249743,81.667901,-6.336,0.5,277.637,20.5,76.37,40.0,19.243681839917397,1.0,-2.375158372318481,0,0,0,1,0.4781826078822488,Medium,2026-03-14 02:31:42,28.9609738463444,-6.336,-277.637,-2.375158372318481,1.0
node/7291844320,Sankalp Hospital,Hospital,RAIPUR,21.2467743,81.5723744,-6.336,0.5,277.637,20.5,76.37,40.0,16.450933412135527,1.0,-2.375158372318481,0,0,0,1,0.4781826078822488,Medium,2026-03-14 02:31:42,28.9609738463444,-6.336,-277.637,-2.375158372318481,1.0
node/12276858430,"Campion School, Raipur",School,RAIPUR,21.2878259,81.7170313,-6.938,1.0,286.786,20.5,76.37,40.0,19.52932311649437,1.0,-2.375158372318481,0,0,0,1,0.375,High,2026-03-14 02:31:42,20.5,-6.938,-286.786,-2.375158372318481,1.0
node/3774564938,bagri nursing home,Hospital,RAIPUR,21.2414376,81.6232005,-6.336,0.5,277.637,20.5,76.37,40.0,16.560469065872635,1.0,-2.375158372318481,0,0,0,1,0.4781826078822488,Medium,2026-03-14 02:31:42,28.9609738463444,-6.336,-277.637,-2.375158372318481,1.0
node/4445117924,Krishna Public School,School,RAIPUR,21.1943876,81.6635818,-6.336,0.5,277.637,20.5,76.37,40.0,13.910108047274514,1.0,-2.375158372318481,0,0,0,1,0.4781826078822488,Medium,2026-03-14 02:31:42,28.9609738463444,-6.336,-277.637,-2.375158372318481,1.0
node/4445119946,Shri Ganesh Vinayak Eye Hospital,Hospital,RAIPUR,21.2131689,81.6561777,-6.336,0.5,277.637,20.5,76.37,40.0,15.132357622608684,1.0,-2.375158372318481,0,0,0,1,0.4781826078822488,Medium,2026-03-14 02:31:42,28.9609738463444,-6.336,-277.637,-2.375158372318481,1.0
node/4445120486,Holy Heartseducational academy,School,RAIPUR,21.2374171,81.6480843,-6.336,0.5,277.637,20.5,76.37,40.0,17.07883637708573,1.0,-2.375158372318481,0,0,0,1,0.4781826078822488,Medium,2026-03-14 02:31:42,28.9609738463444,-6.336,-277.637,-2.375158372318481,1.0
node/4445126014,Mayoor school,School,RAIPUR,21.2349537,81.6495081,-6.336,0.5,277.637,20.5,76.37,40.0,16.897452270869884,1.0,-2.375158372318481,0,0,0,1,0.4781826078822488,Medium,2026-03-14 02:31:42,28.9609738463444,-6.336,-277.637,-2.375158372318481,1.0
node/4445146001,Yashwant Hospital,Hospital,RAIPUR,21.2403202,81.6293508,-6.336,0.5,277.637,20.5,76.37,40.0,16.638813465284432,1.0,-2.375158372318481,0,0,0,1,0.4781826078822488,Medium,2026-03-14 02:31:42,28.9609738463444,-6.336,-277.637,-2.375158372318481,1.0
node/4445158557,Bharat Mata higher secondary school,School,RAIPUR,21.2604534,81.5742895,-6.336,0.5,277.637,20.5,76.37,40.0,17.96726268708192,1.0,-2.375158372318481,0,0,0,1,0.4781826078822488,Medium,2026-03-14 02:31:42,28.9609738463444,-6.336,-277.637,-2.375158372318481,1.0
node/4445165297,Dronacharya public school,School,RAIPUR,21.2188586,81.6522695,-6.336,0.5,277.637,20.5,76.37,40.0,15.45863560011049,1.0,-2.375158372318481,0,0,0,1,0.4781826078822488,Medium,2026-03-14 02:31:42,28.9609738463444,-6.336,-277.637,-2.375158372318481,1.0
node/4445176350,The Radient Way School,School,RAIPUR,21.2451205,81.5880403,-6.336,0.5,277.637,20.5,76.37,40.0,16.300865977514754,1.0,-2.375158372318481,0,0,0,1,0.4781826078822488,Medium,2026-03-14 02:31:42,28.9609738463444,-6.336,-277.637,-2.375158372318481,1.0
node/4445182024,Holy cross senior secondary school,School,RAIPUR,21.2617556,81.6602541,-6.336,0.5,277.637,20.5,76.37,40.0,20.06445824486639,1.0,-2.375158372318481,0,0,0,1,0.4781826078822488,Medium,2026-03-14 02:31:42,28.9609738463444,-6.336,-277.637,-2.375158372318481,1.0
node/4445255005,Bharatiya vidya bhuvans R.K. sarda vidya mandir,School,RAIPUR,21.2885051,81.7017642,-6.336,1.0,286.786,20.5,76.37,40.0,20.693377028661455,1.0,-2.375158372318481,0,0,0,1,0.4012286510979435,Medium,2026-03-14 02:31:42,22.650749390031365,-6.336,-286.786,-2.375158372318481,1.0
node/4445258453,MGM school,School,RAIPUR,21.2515714,81.6704839,-6.336,0.5,277.637,20.5,76.37,40.0,19.552581326155902,1.0,-2.375158372318481,0,0,0,1,0.4781826078822488,Medium,2026-03-14 02:31:42,28.9609738463444,-6.336,-277.637,-2.375158372318481,1.0
node/4445382462,Ryan International School,School,RAIPUR,21.2474275,81.6883917,-6.336,0.5,277.637,20.5,76.37,40.0,20.1578541733777,1.0,-2.375158372318481,0,0,0,1,0.4781826078822488,Medium,2026-03-14 02:31:42,28.9609738463444,-6.336,-277.637,-2.375158372318481,1.0
node/4446574875,Grass Memorial Ground,School,RAIPUR,21.2385713,81.6450914,-6.336,0.5,277.637,20.5,76.37,40.0,17.063831969993387,1.0,-2.375158372318481,0,0,0,1,0.4781826078822488,Medium,2026-03-14 02:31:42,28.9609738463444,-6.336,-277.637,-2.375158372318481,1.0
node/4711002386,Mittal Hospital,Hospital,RAIPUR,21.260362,81.6587146,-6.336,0.5,277.637,20.5,76.37,40.0,19.856042437310236,1.0,-2.375158372318481,0,0,0,1,0.4781826078822488,Medium,2026-03-14 02:31:42,28.9609738463444,-6.336,-277.637,-2.375158372318481,1.0
node/4994374903,primary government hospital Bangoli,Hospital,RAIPUR,21.4005479,81.8506453,-1.2,1.0,286.786,20.5,76.37,40.0,0.888862398223183,1.0,-2.375158372318481,0,0,0,1,0.625,Medium,2026-03-14 02:31:42,41.0,-1.2,-286.786,-2.375158372318481,1.0
node/6283904436,Dispensary,Hospital,RAIPUR,21.2514868,81.6023593,-6.336,0.5,277.637,20.5,76.37,40.0,17.171520226479043,1.0,-2.375158372318481,0,0,0,1,0.4781826078822488,Medium,2026-03-14 02:31:42,28.9609738463444,-6.336,-277.637,-2.375158372318481,1.0
node/7736593775,Shri Venkatesh School,School,RAIPUR,21.2783652,81.6748896,-6.336,0.5,277.637,20.5,76.37,40.0,22.391837202222504,1.0,-2.375158372318481,0,0,0,1,0.4781826078822488,Medium,2026-03-14 02:31:42,28.9609738463444,-6.336,-277.637,-2.375158372318481,1.0
node/8322190354,Daffodils English School,School,RAIPUR,21.2574871,81.6049235,-6.336,0.5,277.637,20.5,76.37,40.0,17.87233120444489,1.0,-2.375158372318481,0,0,0,1,0.4781826078822488,Medium,2026-03-14 02:31:42,28.9609738463444,-6.336,-277.637,-2.375158372318481,1.0
node/10939721749,A.S.M DENTAL CLINIC,Hospital,RAIPUR,21.2371135,81.5978925,-6.336,0.5,277.637,20.5,76.37,40.0,15.522605951625787,1.0,-2.375158372318481,0,0,0,1,0.4781826078822488,Medium,2026-03-14 02:31:42,28.9609738463444,-6.336,-277.637,-2.375158372318481,1.0
node/10939807399,Shreevedam Dental and Aryuvedic Clinic,Hospital,RAIPUR,21.2345837,81.5954368,-6.336,0.5,277.637,20.5,76.37,40.0,15.209930679303952,1.0,-2.375158372318481,0,0,0,1,0.4781826078822488,Medium,2026-03-14 02:31:42,28.9609738463444,-6.336,-277.637,-2.375158372318481,1.0
