facility_id,facility_name,facility_type,district,latitude,longitude,crs,risk_level,flood_risk_prob,water_shortage_risk_prob,power_outage_risk_prob,sanitation_failure_risk_prob,human_impact_risk_prob,flood_risk_label,water_shortage_risk_label,power_outage_risk_label,sanitation_failure_risk_label,human_impact_risk_label,top_risk_type,top_risk_score,alert_flag,alert_level
node/4445104811,Ramkrishna Care Hospital,Hospital,RAIPUR,21.2130814,81.6537238,0.4781826078822488,Medium,0.9654713774313778,0.8476146824451946,0.5919552628258457,0.9279028515573761,0.00023551702937800738,High,High,Medium,High,Low,flood,0.9654713774313778,True,Critical
node/4445112827,Narayana Hrudayalaya Mmi Hospital (Managed By Narayana Hrudayalaya Pvt Ltd - Bangalore) - Raipur,Hospital,RAIPUR,21.2132613,81.657736,0.4781826078822488,Medium,0.9654706498522728,0.8476146824451946,0.5919552628258457,0.9279028515573761,0.00018855171000838953,High,High,Medium,High,Low,flood,0.9654706498522728,True,Critical
node/4445113471,Suyash Superspeciality Hospital,Hospital,RAIPUR,21.2584938,81.6060273,0.4781826078822488,Medium,0.9654549645665352,0.014083172193405833,0.4737204005117517,0.9275183373017919,0.00015819552051516244,High,Low,Medium,High,Low,flood,0.9654549645665352,True,Critical
node/4445129008,Vardaan Hospital (Unit Of Jindal Medicare),Hospital,RAIPUR,21.2520112,81.6632415,0.4781826078822488,Medium,0.9654493206347793,0.014083082995186841,0.47309430934201196,0.9274782238713056,0.00015819552051516244,High,Low,Medium,High,Low,flood,0.9654493206347793,True,Critical
node/4445137285,Bal Gopal Children Hospital and Research Institute,Hospital,RAIPUR,21.2349337,81.6413322,0.4781826078822488,Medium,0.9654454552567896,0.014083082995186841,0.46905800838105866,0.92744883770672,0.00015819552051516244,High,Low,Medium,High,Low,flood,0.9654454552567896,True,Critical
node/5556568170,Navkar Hospital and Maternity Home,Hospital,RAIPUR,21.2284143,81.6545326,0.4781826078822488,Medium,0.9654376201921359,0.014083082995186841,0.4682220587710381,0.9274043218693858,0.00015769293421680542,High,Low,Medium,High,Low,flood,0.9654376201921359,True,Critical
node/6950645744,Karma Hospital,Hospital,RAIPUR,21.2401756,81.6622585,0.4781826078822488,Medium,0.9654290635903249,0.014083082995186841,0.46653203903699164,0.9273715479353202,0.00015769293421680542,High,Low,Medium,High,Low,flood,0.9654290635903249,True,Critical
node/6950645749,Chhattisgarh Eye Hospital,Hospital,RAIPUR,21.2392112,81.6621937,0.4781826078822488,Medium,0.9654209333217256,0.014083082995186841,0.4634626821380938,0.9273255031673914,0.00015769293421680542,High,Low,Medium,High,Low,flood,0.9654209333217256,True,Critical
node/6950645773,Devi Laxmi Hospital,Hospital,RAIPUR,21.2233136,81.6522994,0.4781826078822488,Medium,0.9654171138140675,0.014083082995186841,0.4544521599520647,0.9272968099569733,0.00015769293421680542,High,Low,Medium,High,Low,flood,0.9654171138140675,True,Critical
node/6953541281,Aashirwad Fertility and Endoscopy Center,Hospital,RAIPUR,21.2346486,81.6077931,0.4781826078822488,Medium,0.9654110247994754,0.014083082995186841,0.4458455169731513,0.92720248476932,0.00015769293421680542,High,Low,Medium,High,Low,flood,0.9654110247994754,True,Critical
node/6950646487,Sanjeevani Cbcc Usa Cancer Hospital,Hospital,RAIPUR,21.2142649,81.6503232,0.4781826078822488,Medium,0.9653856329230065,0.014083082995186841,0.44613910662074324,0.9271816023979828,0.00015769293421680542,High,Low,Medium,High,Low,flood,0.9653856329230065,True,Critical
node/6956627645,"Samarpan Hospital, Raipur",Hospital,RAIPUR,21.2650092,81.6679336,0.4781826078822488,Medium,0.9653710106224889,0.014083082995186841,0.44302023591322515,0.9271415731241243,0.00015769293421680542,High,Low,Medium,High,Low,flood,0.9653710106224889,True,Critical
node/6956627650,Sai Sushrusha Hospital,Hospital,RAIPUR,21.2352073,81.6418236,0.4781826078822488,Medium,0.965362504816229,0.014083082995186841,0.43700031354529223,0.9271016089612795,0.00015769293421680542,High,Low,Medium,High,Low,flood,0.965362504816229,True,Critical
node/6956627655,Sai Kalayan Hospital And Icu,Hospital,RAIPUR,21.2499934,81.6684566,0.4781826078822488,Medium,0.9653469930931965,0.014083082995186841,0.43181690332226214,0.9270727302186147,0.00015769293421680542,High,Low,Medium,High,Low,flood,0.9653469930931965,True,Critical
node/6956627660,Sai Baba Eye Hospital,Hospital,RAIPUR,21.2595225,81.6370104,0.4781826078822488,Medium,0.9653386076408347,0.014083082995186841,0.3969132645705645,0.9270299411141716,0.00015769293421680542,High,Low,Medium,High,Low,flood,0.9653386076408347,True,Critical
node/6956627669,Raipur Institute Of Medical Sciences Hospital,Hospital,RAIPUR,21.2419875,81.8368053,0.375,High,0.9653266169365701,0.014083082995186841,0.38564370993869473,0.9270061846183708,0.00015769293421680542,High,Low,Medium,High,Low,flood,0.9653266169365701,True,Critical
node/6956629791,Prannath Mission Hospital,Hospital,RAIPUR,21.2647055,81.6395652,0.4781826078822488,Medium,0.9653204661280869,0.014083082995186841,0.368526217087454,0.9270061846183708,0.00015769293421680542,High,Low,Medium,High,Low,flood,0.9653204661280869,True,Critical
node/6956629796,Piles Care Hospital,Hospital,RAIPUR,21.2454024,81.6468099,0.4781826078822488,Medium,0.9653014308003588,0.014083082995186841,0.35954622787458407,0.9268667435172433,0.00015769293411755294,High,Low,Medium,High,Low,flood,0.9653014308003588,True,Critical
node/6956629801,Tharani Children Hospital And Dental Clinic,Hospital,RAIPUR,21.2248204,81.6595718,0.4781826078822488,Medium,0.9652788482143415,0.014083082995186841,0.3580875423844931,0.9268095872666443,0.00015769293411755294,High,Low,Medium,High,Low,flood,0.9652788482143415,True,Critical
node/6956629810,Dr. M.R. Bhagwat Memorial Hospital,Hospital,RAIPUR,21.2439374,81.6145067,0.4781826078822488,Medium,0.9652715640696846,0.014083082995186841,0.35361711021258485,0.9267532815550995,0.00015769293411755294,High,Low,Medium,High,Low,flood,0.9652715640696846,True,Critical
node/6965497719,"Tripathi Hospital, Raipur",Hospital,RAIPUR,21.2495084,81.6579813,0.4781826078822488,Medium,0.9652607138094358,0.014082036608051502,0.2877530357388201,0.7509228659268617,0.0009535702034111747,High,Low,Low,High,Low,flood,0.9652607138094358,True,Critical
node/6956629815,Kalda Plastic and Cosmetic Surgery Institute and Burn Centre,Hospital,RAIPUR,21.2166146,81.6572553,0.4781826078822488,Medium,0.9652430639168169,0.014083082995186841,0.3478940436841697,0.9266228810938334,0.00015769293411755294,High,Low,Medium,High,Low,flood,0.9652430639168169,True,Critical
node/6956629976,Vidya Hospital And Kidney Centre,Hospital,RAIPUR,21.2491409,81.6617082,0.4781826078822488,Medium,0.9652373306182116,0.014083082995186841,0.3424296546672654,0.9265263011198686,0.00015769293411755294,High,Low,Medium,High,Low,flood,0.9652373306182116,True,Critical
node/6956655133,Shri Aurobindo Medical Research Centre,Hospital,RAIPUR,21.2145777,81.6542597,0.4781826078822488,Medium,0.965220534751475,0.014083082995186841,0.33867944032859554,0.9265085666290602,0.00015769293411755294,High,Low,Medium,High,Low,flood,0.965220534751475,True,Critical
node/6956655140,Shree Sai Care Hospital,Hospital,RAIPUR,21.2398899,81.6698393,0.4781826078822488,Medium,0.9652102075446587,0.014083082995186841,0.3207862601257358,0.926420920113975,0.00016037111279509295,High,Low,Low,High,Low,flood,0.9652102075446587,True,Critical
node/6956655145,Shree Medishine Hospital - Raipur,Hospital,RAIPUR,21.2200322,81.6655757,0.4781826078822488,Medium,0.9652000544363625,0.014083082995186841,0.302396223556414,0.9264046482264416,0.0001605098792843147,High,Low,Low,High,Low,flood,0.9652000544363625,True,Critical
node/6956655152,Sarvodaya Hospital and Maternity Center,Hospital,RAIPUR,21.2715555,81.6710436,0.4781826078822488,Medium,0.9651628007692828,0.014083082995186841,0.28172151863043465,0.9261938805371877,0.0001605098792843147,High,Low,Low,High,Low,flood,0.9651628007692828,True,Critical
node/6957120029,Visharad Hospital,Hospital,RAIPUR,21.2391162,81.6413422,0.4781826078822488,Medium,0.9651575241275528,0.014083082995186841,0.2751147157806778,0.9261683470369579,0.0001605098792843147,High,Low,Low,High,Low,flood,0.9651575241275528,True,Critical
node/6957120034,Urmila Memorial Multispeciality Hospital,Hospital,RAIPUR,21.2582818,81.6553302,0.4781826078822488,Medium,0.9651086230269691,0.014083082995186841,0.2738825693944252,0.9261064884606595,0.0001606829294288156,High,Low,Low,High,Low,flood,0.9651086230269691,True,Critical
node/6957120039,"Upadhyay Hospital, Raipur",Hospital,RAIPUR,21.2625908,81.5873668,0.4781826078822488,Medium,0.9651028801489909,0.014083082995186841,0.2733464053324656,0.9260972897727493,0.0001606829294288156,High,Low,Low,High,Low,flood,0.9651028801489909,True,Critical
node/6957120057,Subham Hospital and Maternity Home,Hospital,RAIPUR,21.2599874,81.6282919,0.4781826078822488,Medium,0.9650503567847837,0.014083082995186841,0.27270491958555393,0.9260999444211184,0.0001606829294288156,High,Low,Low,High,Low,flood,0.9650503567847837,True,Critical
node/6957120062,Subba Rao Hospital,Hospital,RAIPUR,21.2570692,81.6373428,0.4781826078822488,Medium,0.9649753781666397,0.014083082995186841,0.2705178587207113,0.9260867475493061,0.0001606829294288156,High,Low,Low,High,Low,flood,0.9649753781666397,True,Critical
node/6957120067,Srimaa Sarada Arogyadham,Hospital,RAIPUR,21.2308046,81.5954804,0.4781826078822488,Medium,0.9649697419542772,0.014083082995186841,0.2694523377616684,0.9260764251386999,0.00016068292946418532,High,Low,Low,High,Low,flood,0.9649697419542772,True,Critical
node/6957120077,Sobhagya Hospital,Hospital,RAIPUR,21.2740474,81.6335745,0.4781826078822488,Medium,0.964951271515447,0.014083082995186841,0.2656395195480525,0.9259799060342,0.00016068292946418532,High,Low,Low,High,Low,flood,0.964951271515447,True,Critical
node/6957120082,"Shri Ram Hospital, Raipur",Hospital,RAIPUR,21.2361049,81.6117065,0.4781826078822488,Medium,0.9649212408568854,0.014083082995186841,0.26207328684532694,0.9258644555713466,0.00016068292946418532,High,Low,Low,High,Low,flood,0.9649212408568854,True,Critical
node/6957133287,Shri Balaji Institute Of Medical Science Pvt Ltd,Hospital,RAIPUR,21.2724251,81.6717492,0.4781826078822488,Medium,0.9649005512518253,0.014083082995186841,0.2570378432683719,0.9258268386753151,0.00016068292946418532,High,Low,Low,High,Low,flood,0.9649005512518253,True,Critical
node/6957503652,Gbg Kidney Care Hospital,Hospital,RAIPUR,21.2259317,81.6585526,0.4781826078822488,Medium,0.964883048320177,0.014083082995186841,0.24809749873117762,0.9257864042974036,0.00016068292946418532,High,Low,Low,High,Low,flood,0.964883048320177,True,Critical
node/6957503647,"Pathak Hospital, Raipur",Hospital,RAIPUR,21.264633,81.6358182,0.4781826078822488,Medium,0.9648809670310214,0.014083082995186841,0.2487487910273967,0.9257864042974036,0.00016068292946418532,High,Low,Low,High,Low,flood,0.9648809670310214,True,Critical
node/6965495354,Modi Hospital,Hospital,RAIPUR,21.2462123,81.6186909,0.4781826078822488,Medium,0.9647455001443918,0.014083082995186841,0.2290973548183833,0.9255672451378869,0.00016068292946418532,High,Low,Low,High,Low,flood,0.9647455001443918,True,Critical
node/6965495359,Jagjivan Urology Centre,Hospital,RAIPUR,21.2461698,81.6239078,0.4781826078822488,Medium,0.9646566485994209,0.014083082995186841,0.22908900318347672,0.9255366484825579,0.00016068292946418532,High,Low,Low,High,Low,flood,0.9646566485994209,True,Critical
node/6965495374,Sahai Hospital,Hospital,RAIPUR,21.2230452,81.656616,0.4781826078822488,Medium,0.9646220483564608,0.014083082995186841,0.2285917189089032,0.925470748208518,0.00016068292946418532,High,Low,Low,High,Low,flood,0.9646220483564608,True,Critical
node/6965495384,"Pragya Hospital, Raipur",Hospital,RAIPUR,21.2443828,81.6601836,0.4781826078822488,Medium,0.9645457893892281,0.014083082995186841,0.21854299228694454,0.9252772743765125,0.00016068292946418532,High,Low,Low,High,Low,flood,0.9645457893892281,True,Critical
node/6965497689,P D Jethani Memorial Hospital and Diagnostic Center,Hospital,RAIPUR,21.2789978,81.6376406,0.4781826078822488,Medium,0.9644527866025109,0.014083082995186841,0.2175747087651406,0.9251868797190103,0.00016068292946418532,High,Low,Low,High,Low,flood,0.9644527866025109,True,Critical
node/6965497699,Nigam Ent Hospital,Hospital,RAIPUR,21.2472973,81.6568963,0.4781826078822488,Medium,0.9643439363024812,0.014083082995186841,0.2175649592738446,0.9251768158606527,0.00016068292946418532,High,Low,Low,High,Low,flood,0.9643439363024812,True,Critical
node/6965497709,Ganpati Hospital (Banthia Hospital),Hospital,RAIPUR,21.2458836,81.6474972,0.4781826078822488,Medium,0.9643439363024812,0.014083082995186841,0.2172514068505236,0.9250668051214737,0.00016068292946418532,High,Low,Low,High,Low,flood,0.9643439363024812,True,Critical
node/6965497714,"Yashwant Hospital, Raipur",Hospital,RAIPUR,21.2399062,81.62751,0.4781826078822488,Medium,0.9642388600956592,0.014083082995186841,0.2104356950956713,0.9249510955952962,0.00016068292946418532,High,Low,Low,High,Low,flood,0.9642388600956592,True,Critical
node/6965497724,Jeewan Memorial Hospital For Plastic Surgery and Uro,Hospital,RAIPUR,21.2496099,81.6580936,0.4781826078822488,Medium,0.9641773809371216,0.014083082995186841,0.17322853223295898,0.9249572640245751,0.00016068292946418532,High,Low,Low,High,Low,flood,0.9641773809371216,True,Critical
node/6965497729,Om Netra Kendra,Hospital,RAIPUR,21.2487035,81.6448975,0.4781826078822488,Medium,0.9641043794148615,0.014083082995186841,0.17323700246961352,0.9248746348788067,0.00016068292946418532,High,Low,Low,High,Low,flood,0.9641043794148615,True,Critical
node/6965497734,Roopjeevan Hospital,Hospital,RAIPUR,21.2567003,81.6410096,0.4781826078822488,Medium,0.964011276931954,0.014083082995186841,0.17323700246961352,0.9246855261957618,0.00016068292946418532,High,Low,Low,High,Low,flood,0.964011276931954,True,Critical
node/6965497739,Jubesta Hospital,Hospital,RAIPUR,21.257246,81.6435068,0.4781826078822488,Medium,0.9639414163706362,0.014083082995186841,0.15170850665761598,0.924097056974905,0.00016068292946418532,High,Low,Low,High,Low,flood,0.9639414163706362,True,Critical
node/6965497744,"Jain Hospital, Raipur",Hospital,RAIPUR,21.2559026,81.6448666,0.4781826078822488,Medium,0.9636805079633123,0.014083082995186841,0.15118817145835065,0.923889562955929,0.00016068292946418532,High,Low,Low,High,Low,flood,0.9636805079633123,True,Critical
node/6965497749,Dr. Rajehwari Kulkarni Surgical Hospital And Dia,Hospital,RAIPUR,21.2573909,81.6466855,0.4781826078822488,Medium,0.9635374545868024,0.014083082995186841,0.15111637892716784,0.9238375313209491,0.00016068292946418532,High,Low,Low,High,Low,flood,0.9635374545868024,True,Critical
node/6965497759,Ekta Institute Of Child Health,Hospital,RAIPUR,21.2471211,81.6566214,0.4781826078822488,Medium,0.9629462037840758,0.014083082995186841,0.14322734398136946,0.9237418093454292,0.00016068292946418532,High,Low,Low,High,Low,flood,0.9629462037840758,True,Critical
node/6965834116,Ayush Hospital and Maternity Home,Hospital,RAIPUR,21.2623121,81.6739498,0.4781826078822488,Medium,0.9627638481820656,0.014083082995186841,0.10605595685065299,0.9237418093454292,0.00016068292946418532,High,Low,Low,High,Low,flood,0.9627638481820656,True,Critical
node/6965834121,Ayushman Hospital and Diagnostic Institute,Hospital,RAIPUR,21.2345823,81.6097793,0.4781826078822488,Medium,0.9618221576946366,0.014083082995186841,0.07970309058339319,0.9236787035381196,0.00016068292946418532,High,Low,Low,High,Low,flood,0.9618221576946366,True,Critical
node/6965834122,Bachpan Hospital,Hospital,RAIPUR,21.2293683,81.6000053,0.4781826078822488,Medium,0.961221917865097,0.014083082995186841,0.0556005631241503,0.9231942539489992,0.00016068292946418532,High,Low,Low,High,Low,flood,0.961221917865097,True,Critical
node/6965834136,Bhattar Hospital,Hospital,RAIPUR,21.242349,81.6395467,0.4781826078822488,Medium,0.961221917865097,0.014083082995186841,0.03966868655207931,0.9226954127105768,0.00016068292946418532,High,Low,Low,High,Low,flood,0.961221917865097,True,Critical
node/6965834146,City Hospital And Research Centre,Hospital,RAIPUR,21.2465523,81.6100636,0.4781826078822488,Medium,0.959993917966163,0.014083082995186841,0.03495612796515502,0.9214334329211482,0.00016068292946418532,High,Low,Low,High,Low,flood,0.959993917966163,True,Critical
node/6965834156,Devkripa Hospital and Doctor Plaza,Hospital,RAIPUR,21.2510058,81.6685317,0.4781826078822488,Medium,0.959993917966163,0.014083082995186841,0.03495596984444646,0.921415250993476,0.00016068292946418532,High,Low,Low,High,Low,flood,0.959993917966163,True,Critical
node/6965834161,Dr. Jaulkar Ent Hospital,Hospital,RAIPUR,21.2471581,81.6123417,0.4781826078822488,Medium,0.95934896491082,0.014083082995186841,0.03213888051070385,0.9207429269073154,0.00016068292946418532,High,Low,Low,High,Low,flood,0.95934896491082,True,Critical
node/6965834166,Dr. Sandeep Bhagwat Orthopedic Hospital,Hospital,RAIPUR,21.2491114,81.6453123,0.4781826078822488,Medium,0.9565258564093381,0.014083082995186841,0.02626821562921187,0.9201583988543853,0.00016068292946418532,High,Low,Low,High,Low,flood,0.9565258564093381,True,Critical
node/6965834176,Eye and Ent Hospital,Hospital,RAIPUR,21.2495993,81.6461378,0.4781826078822488,Medium,0.9528947636909729,0.014083082995186841,0.024990251247857326,0.9200704876322096,0.00016068292946418532,High,Low,Low,High,Low,flood,0.9528947636909729,True,Critical
node/6965834177,"Heritage Hospital, Raipur",Hospital,RAIPUR,21.2604399,81.6429824,0.4781826078822488,Medium,0.9484935100474248,0.014083082995186841,0.024693349378147406,0.9197990629188277,0.00016068292946418532,High,Low,Low,High,Low,flood,0.9484935100474248,True,Critical
node/6965834182,Jyoti Hospital and Prasuti Griha,Hospital,RAIPUR,21.5563958,81.8090755,0.3943011502265597,High,0.9455613884670707,0.014083082995186841,0.024157196008492796,0.9197020196506966,0.00016068292946418532,High,Low,Low,High,Low,flood,0.9455613884670707,True,Critical
node/6965836187,K G N Surical and Maternity Centre,Hospital,RAIPUR,21.2342586,81.645458,0.4781826078822488,Medium,0.9432383209145856,0.014083082995186841,0.024157196008492796,0.9190897111546091,0.00016068292946167225,High,Low,Low,High,Low,flood,0.9432383209145856,True,Critical
node/6965836192,K.M. Hospital,Hospital,RAIPUR,21.2438524,81.6384199,0.4781826078822488,Medium,0.9298062721113872,0.014083082995186841,0.023260150004165796,0.9181722337986274,0.00016068292946167225,High,Low,Low,High,Low,flood,0.9298062721113872,True,Critical
node/6965836197,M. M. Hospital,Hospital,RAIPUR,21.2605318,81.6367264,0.4781826078822488,Medium,0.9252622095879038,0.014083082995186841,0.022846262134317088,0.9174884760502086,0.00016068292946167225,High,Low,Low,High,Low,flood,0.9252622095879038,True,Critical
node/6965836202,Mahadev Hospital,Hospital,RAIPUR,21.2294448,81.597827,0.4781826078822488,Medium,0.9251885114259825,0.014083082995186841,0.022846239683526736,0.9170560998283802,0.00016068292946167225,High,Low,Low,High,Low,flood,0.9251885114259825,True,Critical
node/6965836211,Mishra Speciality Hospital,Hospital,RAIPUR,21.2615844,81.6380407,0.4781826078822488,Medium,0.9125829699645887,0.014083082995186841,0.022455883864620076,0.9147756634597766,0.00016068292946167225,High,Low,Low,High,Low,sanitation_failure,0.9147756634597766,True,Critical
node/6965836216,Matra Smriti Hospital,Hospital,RAIPUR,21.2686163,81.6197897,0.4781826078822488,Medium,0.8848513934064944,0.014083082995186841,0.022315573960128246,0.9070074697543856,0.00016068292946167225,High,Low,Low,High,Low,sanitation_failure,0.9070074697543856,True,Critical
node/6965836221,M D Hospital and Iccu,Hospital,RAIPUR,21.2465873,81.6236986,0.4781826078822488,Medium,0.8514001913999155,0.014083082995186841,0.02231556137881445,0.90328301614079,0.00016068292946167225,High,Low,Low,High,Low,sanitation_failure,0.90328301614079,True,Critical
node/6966522779,Mgm Eye Hospital,Hospital,RAIPUR,21.2783101,81.7026642,0.4012286510979435,Medium,0.7717635958565641,0.014083082995186841,0.022270803779389187,0.9028439539470826,0.00016068292946167225,High,Low,Low,High,Low,sanitation_failure,0.9028439539470826,True,Critical
node/6966551463,Suprita Hospital,Hospital,RAIPUR,21.2564347,81.6388497,0.4781826078822488,Medium,0.6183236026510439,0.014083082995186841,0.022266624299289647,0.8967765535739041,0.00016068292946167225,Medium,Low,Low,High,Low,sanitation_failure,0.8967765535739041,True,Critical
node/6966792004,Evangelical Mission Hospital,Hospital,RAIPUR,21.5540159,81.7903335,0.3943011502265597,High,0.6056354709898067,0.014083082995186841,0.02215121517489801,0.891575627904464,0.00016068292959384818,Medium,Low,Low,High,Low,sanitation_failure,0.891575627904464,True,Critical
node/6966904907,Shri Manulal Memorial Medical Centre,Hospital,RAIPUR,21.2363311,81.6213289,0.4781826078822488,Medium,0.2310797117872534,0.014083082995186841,0.02201285381329507,0.8865332029242935,0.00016071739401304027,Low,Low,Low,High,Low,sanitation_failure,0.8865332029242935,True,Critical
node/6966792010,Lifeworth Super Speciality Hospital,Hospital,RAIPUR,21.2456986,81.6175885,0.4781826078822488,Medium,0.3645835412004838,0.014083082995186841,0.02212438662211078,0.8864035223726944,0.00016068292959384818,Medium,Low,Low,High,Low,sanitation_failure,0.8864035223726944,True,Critical
node/6966904976,Agrasen Hospital,Hospital,RAIPUR,21.2454224,81.6245992,0.4781826078822488,Medium,0.03302462031901913,0.014083082995186841,0.02163786131847027,0.8625827106113345,0.00016126221287596947,Low,Low,Low,High,Low,sanitation_failure,0.8625827106113345,True,Critical
node/6968263373,Pt.J N M Medical College Hospital,Hospital,RAIPUR,21.251975,81.6391427,0.4781826078822488,Medium,0.03094676587139981,0.014083082995186841,0.021522335574177903,0.8625827106113345,0.00016126221287596947,Low,Low,Low,High,Low,sanitation_failure,0.8625827106113345,True,Critical
node/6966904930,"Sahu Hospital, Raipur",Hospital,RAIPUR,21.2554704,81.6406797,0.4781826078822488,Medium,0.04641365777591372,0.014083082995186841,0.021660302266263434,0.8623984148805633,0.00016071739401304027,Low,Low,Low,High,Low,sanitation_failure,0.8623984148805633,True,Critical
node/6968280740,"Kanwar Hospital, Raipur",Hospital,RAIPUR,21.2532719,81.6651843,0.4781826078822488,Medium,0.01618696135047643,0.014083082995186841,0.021136754359176044,0.8335139932758091,0.00016126221287596947,Low,Low,Low,High,Low,sanitation_failure,0.8335139932758091,True,Critical
node/6968280745,Raipur Hospital,Hospital,RAIPUR,21.2468461,81.6415286,0.4781826078822488,Medium,0.015265568969815698,0.014083082995186841,0.021075873452613237,0.8318979828467774,0.00016126221287596947,Low,Low,Low,High,Low,sanitation_failure,0.8318979828467774,True,Critical
node/6968280774,"Sanjeewan Hospital, Raipur",Hospital,RAIPUR,21.2208074,81.6410136,0.4781826078822488,Medium,0.015257190944955834,0.014083082995186841,0.021060282584433463,0.8211730962554845,0.0001612361841772026,Low,Low,Low,High,Low,sanitation_failure,0.8211730962554845,True,Critical
node/6968280856,Arihant Netralaya,Hospital,RAIPUR,21.2359599,81.6381209,0.4781826078822488,Medium,0.014844551307233953,0.014083082995186841,0.021052849394732717,0.802792131477324,0.0001612361841772026,Low,Low,Low,High,Low,sanitation_failure,0.802792131477324,True,Critical
node/7148125099,Govt. T.B. Hospital,Hospital,RAIPUR,21.2346921,81.6389363,0.4781826078822488,Medium,0.012961391862771171,0.014083082995186841,0.021027820674234584,0.7512792368469956,0.0001612361841772026,Low,Low,Low,High,Low,sanitation_failure,0.7512792368469956,True,High
node/7148125111,Government Hospital Farfoud,Hospital,RAIPUR,21.2743757,81.9506788,0.625,Medium,0.012676769024007079,0.014083082995186841,0.021022402205829308,0.6875039764854062,0.0001612361841772026,Low,Low,Low,High,Low,sanitation_failure,0.6875039764854062,False,Normal
node/7148125120,Government Hospital Uparwara,Hospital,RAIPUR,21.117467,81.764341,0.4519539567843054,Medium,0.012415357624557172,0.014083082995186841,0.02100325541482748,0.6725698666233161,0.0001612361841772026,Low,Low,Low,High,Low,sanitation_failure,0.6725698666233161,False,Normal
node/7148125143,"Government Hospital, Tilda",Hospital,RAIPUR,21.5498742,81.7969593,0.3943011502265597,High,0.012191955923179893,0.014083082995186841,0.020992822042599227,0.6725698666233161,0.0001612361841772026,Low,Low,Low,High,Low,sanitation_failure,0.6725698666233161,False,Normal
node/7148125202,"Government hospital,Khokhopara",Hospital,RAIPUR,21.23239,81.6223248,0.4781826078822488,Medium,0.011846577213130934,0.014083082995186841,0.020992822042599227,0.6670804492367953,0.0001612361841772026,Low,Low,Low,High,Low,sanitation_failure,0.6670804492367953,False,Normal
node/7148125239,Government hospital arang,Hospital,RAIPUR,21.1940118,81.9703912,0.375,High,0.010874523608716477,0.014083082995186841,0.020992815960488284,0.5910254019637221,0.0001612361841772026,Low,Low,Low,Medium,Low,sanitation_failure,0.5910254019637221,False,Normal
node/7148125255,District Hospital Raipur,Hospital,RAIPUR,21.2317387,81.6401796,0.4781826078822488,Medium,0.010856925657091898,0.014083082995186841,0.020992815960488284,0.5862826123091377,0.0001612361841772026,Low,Low,Low,Medium,Low,sanitation_failure,0.5862826123091377,False,Normal
node/7148125257,Goverment hospital Gobra Nawapara,Hospital,RAIPUR,20.9675515,81.8588705,0.375,High,0.010764615591926464,0.014083082995186841,0.020992815960488284,0.5673479441050779,0.0001612361841772026,Low,Low,Low,Medium,Low,sanitation_failure,0.5673479441050779,False,Normal
node/7148125258,Shri Khudadad Dungaji Government Ayurved College Hospital,Hospital,RAIPUR,21.244933,81.605817,0.4781826078822488,Medium,0.010217160536119223,0.014083082995186841,0.020984531426815698,0.40156469463623873,0.0001612361841772026,Low,Low,Low,Medium,Low,sanitation_failure,0.40156469463623873,False,Normal
node/7148125308,Government Hospital,Hospital,RAIPUR,21.2300217,81.6598785,0.4781826078822488,Medium,0.010114272240040906,0.014083082995186841,0.020984531426815698,0.3983248224118057,0.0001612361841772026,Low,Low,Low,Medium,Low,sanitation_failure,0.3983248224118057,False,Normal
node/7148125312,Labhandhi Government Hospital,Hospital,RAIPUR,21.244877,81.703673,0.4781826078822488,Medium,0.010114272240040906,0.014083082995186841,0.020984531426815698,0.3925726059234084,0.0001612361841772026,Low,Low,Low,Medium,Low,sanitation_failure,0.3925726059234084,False,Normal
node/7288964595,Shri Balaji Hospital,Hospital,RAIPUR,21.2261487,81.6397097,0.4781826078822488,Medium,0.010092001303552546,0.014083082995186841,0.0209832557842257,0.38056869036754243,0.0001612361841772026,Low,Low,Low,Medium,Low,sanitation_failure,0.38056869036754243,False,Normal
node/7288964599,Jeevan Anmol Hospital,Hospital,RAIPUR,21.2250565,81.6531985,0.4781826078822488,Medium,0.00987799502621174,0.014083082995186841,0.0209766120355693,0.34940049608394513,0.00016125065080308204,Low,Low,Low,Medium,Low,sanitation_failure,0.34940049608394513,False,Normal
node/7288964602,Madhumeet Hospital,Hospital,RAIPUR,21.2401655,81.6698864,0.4781826078822488,Medium,0.00977518657348254,0.014083082995186841,0.020968813638251385,0.3398750360676741,0.00016125065080308204,Low,Low,Low,Medium,Low,sanitation_failure,0.3398750360676741,False,Normal
node/7288964603,Shri Krishna Hospital,Hospital,RAIPUR,21.223641,81.660207,0.4781826078822488,Medium,0.009727081227890776,0.014083082995186841,0.020965775121606082,0.31376962322006136,0.00016125065080308204,Low,Low,Low,Low,Low,sanitation_failure,0.31376962322006136,False,Normal
node/7288964610,Raipura Hospital,Hospital,RAIPUR,21.2321504,81.6035435,0.4781826078822488,Medium,0.009687576781979623,0.014083082995186841,0.020949634194049428,0.30047815846372095,0.00016125065080308204,Low,Low,Low,Low,Low,sanitation_failure,0.30047815846372095,False,Normal
node/7288964613,Awasthi Hospital,Hospital,RAIPUR,21.231624,81.6540067,0.4781826078822488,Medium,0.0096645175839999,0.014083082995186841,0.02093261259153233,0.28861538235515816,0.00016125065080308204,Low,Low,Low,Low,Low,sanitation_failure,0.28861538235515816,False,Normal
node/7288964616,Om Superspeciality Hospital,Hospital,RAIPUR,21.2292542,81.5986728,0.4781826078822488,Medium,0.0096645175839999,0.014083082995186841,0.020930429951993613,0.27510538447232974,0.00016125065080308204,Low,Low,Low,Low,Low,sanitation_failure,0.27510538447232974,False,Normal
node/7288964641,Kankali Hospital Parisar,Hospital,RAIPUR,21.23854,81.62784,0.4781826078822488,Medium,0.009648902183942744,0.014083082995186841,0.02092459343114789,0.26774654808602505,0.00016125065080308204,Low,Low,Low,Low,Low,sanitation_failure,0.26774654808602505,False,Normal
node/7288964642,Anjali Children Hospital,Hospital,RAIPUR,21.22115,81.649675,0.4781826078822488,Medium,0.009642770355575985,0.014083082995186841,0.020915511004599336,0.2476658382600583,0.00016125065080308204,Low,Low,Low,Low,Low,sanitation_failure,0.2476658382600583,False,Normal
node/7288964644,We Care Super Specialty Hospital,Hospital,RAIPUR,21.235399,81.668942,0.4781826078822488,Medium,0.009633724931744634,0.014083082995186841,0.020914447909085213,0.22716534206938463,0.00016125065080308204,Low,Low,Low,Low,Low,sanitation_failure,0.22716534206938463,False,Normal
node/7288964648,District Police Hospital,Hospital,RAIPUR,21.2307216,81.6449518,0.4781826078822488,Medium,0.009627002229282105,0.014083082995186841,0.020914144402088344,0.21033267324351437,0.00016125065080308204,Low,Low,Low,Low,Low,sanitation_failure,0.21033267324351437,False,Normal
node/7288964653,Dr Manoj Agrwal,Hospital,RAIPUR,21.2437894,81.6504829,0.4781826078822488,Medium,0.009615387114308815,0.014083082995186841,0.020911771985372477,0.1804100653685113,0.00016125065080308204,Low,Low,Low,Low,Low,sanitation_failure,0.1804100653685113,False,Normal
node/7288964658,Avanti Hospital,Hospital,RAIPUR,21.2408235,81.6696319,0.4781826078822488,Medium,0.00953793684465007,0.014083082995186841,0.02091091874370307,0.16046641905242912,0.00016125065078818025,Low,Low,Low,Low,Low,sanitation_failure,0.16046641905242912,False,Normal
node/7288964664,Anand Shree Hospital,Hospital,RAIPUR,21.233519,81.604322,0.4781826078822488,Medium,0.009494432869072181,0.014083082995186841,0.02090604852122968,0.15607857390297944,0.00016125065078818025,Low,Low,Low,Low,Low,sanitation_failure,0.15607857390297944,False,Normal
node/7288964666,Life Line Hospital,Hospital,RAIPUR,21.2328853,81.605519,0.4781826078822488,Medium,0.009478518871821906,0.014083082995186841,0.02089069240183516,0.08229607221954789,0.000161233251985929,Low,Low,Low,Low,Low,sanitation_failure,0.08229607221954789,False,Normal
node/7288964673,Shri Jagannath Multispeciality Hospital,Hospital,RAIPUR,21.22998,81.600057,0.4781826078822488,Medium,0.009469252728785254,0.014083082995186841,0.020889663059703963,0.07267560513449203,0.000161233251985929,Low,Low,Low,Low,Low,sanitation_failure,0.07267560513449203,False,Normal
node/7288964676,Gayatri Hospital,Hospital,RAIPUR,21.239345,81.6038105,0.4781826078822488,Medium,0.009438791826105014,0.014083082995186841,0.020887504839835175,0.06855778201048622,0.0001612570096052187,Low,Low,Low,Low,Low,sanitation_failure,0.06855778201048622,False,Normal
node/7288964679,Vijaya durga hospital,Hospital,RAIPUR,21.235824,81.63491,0.4781826078822488,Medium,0.009426747383737598,0.014083082995186841,0.020887363482578664,0.06845773519794825,0.00016119017311329135,Low,Low,Low,Low,Low,sanitation_failure,0.06845773519794825,False,Normal
node/7288964681,Rajdhani Super Speciality Hospital,Hospital,RAIPUR,21.2190325,81.6483451,0.4781826078822488,Medium,0.009414200260822701,0.014083082995186841,0.02088222626330973,0.06821749456867793,0.00016119017311329135,Low,Low,Low,Low,Low,sanitation_failure,0.06821749456867793,False,Normal
node/7288964683,Dr Nigam Hospital,Hospital,RAIPUR,21.2350371,81.6517301,0.4781826078822488,Medium,0.00939278886017854,0.014083082995186841,0.02087577145737612,0.06720364959286117,0.00016119017311329135,Low,Low,Low,Low,Low,sanitation_failure,0.06720364959286117,False,Normal
node/7291844243,Virdi Hospital,Hospital,RAIPUR,21.2496368,81.628347,0.4781826078822488,Medium,0.0093488202080706,0.014083082995186841,0.02087651087426072,0.061202042388529304,0.00016119017311329135,Low,Low,Low,Low,Low,sanitation_failure,0.061202042388529304,False,Normal
node/7291844245,DKS Super Speciality Hospital,Hospital,RAIPUR,21.2449632,81.6412379,0.4781826078822488,Medium,0.009305969421359485,0.014083082995186841,0.020874305841461802,0.05842231694011422,0.0001611901732610419,Low,Low,Low,Low,Low,sanitation_failure,0.05842231694011422,False,Normal
node/7288964686,Shubham Hospital,Hospital,RAIPUR,21.23422,81.610285,0.4781826078822488,Medium,0.017374415038938492,0.014081884275527376,0.020995962231761454,0.057977558013971774,0.0008060115848575051,Low,Low,Low,Low,Low,sanitation_failure,0.057977558013971774,False,Normal
node/7291844264,"Om Hospital , Burn Plastic & Cosmetic Surgery Center",Hospital,RAIPUR,21.2451108,81.6301308,0.4781826078822488,Medium,0.00930232729727086,0.014083082995186841,0.020867120735794786,0.053632269232742835,0.0001611901732610419,Low,Low,Low,Low,Low,sanitation_failure,0.053632269232742835,False,Normal
node/7291844275,Shri Mahaveer Hospital,Hospital,RAIPUR,21.25007,81.6625026,0.4781826078822488,Medium,0.009298198328536228,0.014083082995186841,0.020867970086378824,0.05247717743275774,0.0001611901732610419,Low,Low,Low,Low,Low,sanitation_failure,0.05247717743275774,False,Normal
node/7291844258,Mamta Hospital,Hospital,RAIPUR,21.246905,81.631597,0.4781826078822488,Medium,0.011628914839708215,0.014081884275527376,0.02087343420922508,0.05104387800630423,0.0008105037492122756,Low,Low,Low,Low,Low,sanitation_failure,0.05104387800630423,False,Normal
node/7291844281,Lotus Hospital & Advance Urology Center,Hospital,RAIPUR,21.2468938,81.6485864,0.4781826078822488,Medium,0.009282738567469114,0.014083082995186841,0.020865483375813367,0.0467860501445228,0.0001611901732610419,Low,Low,Low,Low,Low,sanitation_failure,0.0467860501445228,False,Normal
node/7291844299,Chand Rani Sardari Lal Speciality EYE And ENT Hospital,Hospital,RAIPUR,21.2463682,81.6546202,0.4781826078822488,Medium,0.009271457010095805,0.014083082995186841,0.02086538943242403,0.04427142938781375,0.0001611901732610419,Low,Low,Low,Low,Low,sanitation_failure,0.04427142938781375,False,Normal
node/7291844302,Petals Newborn And Children Hospital,Hospital,RAIPUR,21.245081,81.6245086,0.4781826078822488,Medium,0.009268749781695883,0.014083082995186841,0.020864833658316023,0.04260796579673059,0.00015824063063099564,Low,Low,Low,Low,Low,sanitation_failure,0.04260796579673059,False,Normal
node/7291844307,Shashwat Hospital,Hospital,RAIPUR,21.244077,81.630207,0.4781826078822488,Medium,0.009265361851081247,0.014083082995186841,0.020861845892869393,0.04224312636446768,0.00015824063063099564,Low,Low,Low,Low,Low,sanitation_failure,0.04224312636446768,False,Normal
node/7291844314,Sagar Multi Speciality Hospital,Hospital,RAIPUR,21.249743,81.667901,0.4781826078822488,Medium,0.00926532282423795,0.014083082995186841,0.020861432791128218,0.04041797768974323,0.00015824063063099564,Low,Low,Low,Low,Low,sanitation_failure,0.04041797768974323,False,Normal
node/7291844320,Sankalp Hospital,Hospital,RAIPUR,21.2467743,81.5723744,0.4781826078822488,Medium,0.009263558112287703,0.014083082995186841,0.020861253386600245,0.03445851888369672,0.00015824063063099564,Low,Low,Low,Low,Low,sanitation_failure,0.03445851888369672,False,Normal
node/12276858430,"Campion School, Raipur",School,RAIPUR,21.2878259,81.7170313,0.375,High,0.009261961841949417,0.014083082995186841,0.02085984659277715,0.03234745146432353,0.00015824063063099564,Low,Low,Low,Low,Low,sanitation_failure,0.03234745146432353,False,Normal
node/3774564938,bagri nursing home,Hospital,RAIPUR,21.2414376,81.6232005,0.4781826078822488,Medium,0.009256574701300034,0.014083082995186841,0.02085593590289912,0.03198614610892789,0.00015824063063099564,Low,Low,Low,Low,Low,sanitation_failure,0.03198614610892789,False,Normal
node/4445117924,Krishna Public School,School,RAIPUR,21.1943876,81.6635818,0.4781826078822488,Medium,0.009255615964317405,0.014083082995186841,0.020821723140825414,0.031053779115629194,0.0001585807352938141,Low,Low,Low,Low,Low,sanitation_failure,0.031053779115629194,False,Normal
node/4445119946,Shri Ganesh Vinayak Eye Hospital,Hospital,RAIPUR,21.2131689,81.6561777,0.4781826078822488,Medium,0.009253303137890842,0.014083082995186841,0.020819169875570278,0.03073144045014885,0.00015850240108791566,Low,Low,Low,Low,Low,sanitation_failure,0.03073144045014885,False,Normal
node/4445120486,Holy Heartseducational academy,School,RAIPUR,21.2374171,81.6480843,0.4781826078822488,Medium,0.009245566332991654,0.014083082995186841,0.020814774368636397,0.029300602567683468,0.00015850240108791566,Low,Low,Low,Low,Low,sanitation_failure,0.029300602567683468,False,Normal
node/4445126014,Mayoor school,School,RAIPUR,21.2349537,81.6495081,0.4781826078822488,Medium,0.009245566332991654,0.014083082995186841,0.020814774368636397,0.029038409708803243,0.00015850240108791566,Low,Low,Low,Low,Low,sanitation_failure,0.029038409708803243,False,Normal
node/4445146001,Yashwant Hospital,Hospital,RAIPUR,21.2403202,81.6293508,0.4781826078822488,Medium,0.009245566332991654,0.014083082995186841,0.020814774368636397,0.029038409708803243,0.00015850240108791566,Low,Low,Low,Low,Low,sanitation_failure,0.029038409708803243,False,Normal
node/4445158557,Bharat Mata higher secondary school,School,RAIPUR,21.2604534,81.5742895,0.4781826078822488,Medium,0.00924331355146299,0.014083082995186841,0.020814445245380047,0.025367176638065966,0.00015850240108791566,Low,Low,Low,Low,Low,sanitation_failure,0.025367176638065966,False,Normal
node/4445165297,Dronacharya public school,School,RAIPUR,21.2188586,81.6522695,0.4781826078822488,Medium,0.009243482589616025,0.014083082995186841,0.020814445245380047,0.0252436823624623,0.00015850240108791566,Low,Low,Low,Low,Low,sanitation_failure,0.0252436823624623,False,Normal
node/4445176350,The Radient Way School,School,RAIPUR,21.2451205,81.5880403,0.4781826078822488,Medium,0.009243482589616025,0.014083082995186841,0.020814445245380047,0.02521410097113085,0.0001606286827336002,Low,Low,Low,Low,Low,sanitation_failure,0.02521410097113085,False,Normal
node/4445255005,Bharatiya vidya bhuvans R.K. sarda vidya mandir,School,RAIPUR,21.2885051,81.7017642,0.4012286510979435,Medium,0.009242499614647312,0.014083082995186841,0.020814445245380047,0.024926162525315838,0.00016362404599184737,Low,Low,Low,Low,Low,sanitation_failure,0.024926162525315838,False,Normal
node/4445382462,Ryan International School,School,RAIPUR,21.2474275,81.6883917,0.4781826078822488,Medium,0.0092407245565201,0.014083082995186841,0.020814445057361693,0.024725446760825245,0.00016362404599184737,Low,Low,Low,Low,Low,sanitation_failure,0.024725446760825245,False,Normal
node/4446574875,Grass Memorial Ground,School,RAIPUR,21.2385713,81.6450914,0.4781826078822488,Medium,0.0092407245565201,0.014083082995186841,0.020814445057361693,0.024725446760825245,0.00016362404599184737,Low,Low,Low,Low,Low,sanitation_failure,0.024725446760825245,False,Normal
node/4711002386,Mittal Hospital,Hospital,RAIPUR,21.260362,81.6587146,0.4781826078822488,Medium,0.0092407245565201,0.014083082995186841,0.020814445057361693,0.024725446760825245,0.00016165654908617552,Low,Low,Low,Low,Low,sanitation_failure,0.024725446760825245,False,Normal
node/4994374903,primary government hospital Bangoli,Hospital,RAIPUR,21.4005479,81.8506453,0.625,Medium,0.0092407245565201,0.014083082995186841,0.020814445057361693,0.024725446760825245,0.0001615376696007566,Low,Low,Low,Low,Low,sanitation_failure,0.024725446760825245,False,Normal
node/4445182024,Holy cross senior secondary school,School,RAIPUR,21.2617556,81.6602541,0.4781826078822488,Medium,0.009553506271246497,0.014081884275527376,0.02083535908745514,0.02403163674604956,0.0008655862141748708,Low,Low,Low,Low,Low,sanitation_failure,0.02403163674604956,False,Normal
node/4445258453,MGM school,School,RAIPUR,21.2515714,81.6704839,0.4781826078822488,Medium,0.009495389555676923,0.014081981502942082,0.020833579901945374,0.023712556069731234,0.0009897998405443745,Low,Low,Low,Low,Low,sanitation_failure,0.023712556069731234,False,Normal
node/8322190354,Daffodils English School,School,RAIPUR,21.2574871,81.6049235,0.4781826078822488,Medium,0.009211537229401955,0.014082220779786382,0.02079688779101187,0.019754050182189387,0.0005800207446799765,Low,Low,Low,Low,Low,power_outage,0.02079688779101187,False,Normal
node/6283904436,Dispensary,Hospital,RAIPUR,21.2514868,81.6023593,0.4781826078822488,Medium,0.009212401939420195,0.014081981502942082,0.020796677359993868,0.019738295059794467,0.001081512041647387,Low,Low,Low,Low,Low,power_outage,0.020796677359993868,False,Normal
node/10939721749,A.S.M DENTAL CLINIC,Hospital,RAIPUR,21.2371135,81.5978925,0.4781826078822488,Medium,0.009208408778049036,0.014082023529288112,0.020796471240217617,0.01961847114959191,0.0005984152047770175,Low,Low,Low,Low,Low,power_outage,0.020796471240217617,False,Normal
node/10939807399,Shreevedam Dental and Aryuvedic Clinic,Hospital,RAIPUR,21.2345837,81.5954368,0.4781826078822488,Medium,0.009207785653380892,0.014082023529288112,0.02079647120498968,0.019595205041899214,0.0006107293168306779,Low,Low,Low,Low,Low,power_outage,0.02079647120498968,False,Normal
node/7736593775,Shri Venkatesh School,School,RAIPUR,21.2783652,81.6748896,0.4781826078822488,Medium,0.009207497126185082,0.014081981502942082,0.02079520196399515,0.019568157573555817,0.0010830254128495035,Low,Low,Low,Low,Low,power_outage,0.02079520196399515,False,Normal
